stop_id,stop_name,stop_lat,stop_lon
10005,40th Ave NE & NE 51st St,47.6658859,-122.284897
10010,NE 55th St & 39th Ave NE,47.6685791,-122.285667
10020,NE 55th St & 37th Ave NE,47.6685791,-122.2883
10030,NE 55th St & 35th Ave NE,47.6685791,-122.290512
10040,NE 55th St & 33rd Ave NE,47.6685829,-122.293015
10050,NE 55th St & 30th Ave NE,47.6685905,-122.295448
10060,NE 55th St & 27th Ave NE,47.6685944,-122.298859
10070,NE 55th St & 25th Ave NE,47.6685944,-122.30098
10083,Ravenna Ave NE & Ravenna Pl NE,47.6684799,-122.30378
1010,Howell St & Minor Ave,47.6167107,-122.330597
10100,NE Ravenna Blvd & Park Rd NE,47.6695518,-122.305405
10110,20th Ave NE & NE 55th St,47.6682739,-122.30658
10120,20th Ave NE & NE 52nd St,47.6662827,-122.306602
10130,NE 50th St & 19th Ave NE,47.6649284,-122.307114
10145,NE 50th St & 16th Ave NE,47.664959,-122.311172
10170,Fairview Ave E & E Nelson Pl,47.6300545,-122.329338
10180,Fairview Ave N & Yale Ave N,47.6283493,-122.33152
10190,Fairview Ave N & Aloha St,47.6270752,-122.333122
10210,Fairview Ave N & Mercer St,47.6235619,-122.33445
10225,Fairview Ave N & Thomas St,47.6205864,-122.334435
10240,Boren Ave & Virginia St,47.6175003,-122.333817
10280,Fairview Ave & Denny Way,47.6188736,-122.334198
10305,Fairview Ave N & Harrison St,47.6222763,-122.334229
10325,Fairview Ave N & Valley St,47.6266136,-122.33345
10328,Valley St & Fairview Ave N,47.6260338,-122.334106
10340,Fairview Ave N & Yale Ave N,47.6288757,-122.330597
10350,Fairview Ave E & Yale Ave N,47.6299744,-122.329185
10370,NE 50th St & University Way NE,47.6648293,-122.31266
10380,NE 50th St & 16th Ave NE,47.664814,-122.310432
1040,Olive Way & 6th Ave,47.6130257,-122.336334
10400,20th Ave NE & NE 50th St,47.6650276,-122.306404
10410,20th Ave NE & NE 52nd St,47.6666412,-122.306404
10420,20th Ave NE & NE 54th St,47.6681633,-122.306389
10430,NE Ravenna Blvd & 21st Ave NE,47.669239,-122.305595
10445,Ravenna Ave NE & NE 54th St,47.6680031,-122.303864
10460,NE 55th St & 25th Ave NE,47.6684494,-122.300217
10470,NE 55th St & 27th Ave NE,47.6684494,-122.298218
10480,NE 55th St & 30th Ave NE,47.6684494,-122.295074
10490,NE 55th St & 33rd Ave NE,47.6684494,-122.29232
1050,Olive Way & 8th Ave,47.6139374,-122.33416
10500,NE 55th St & 35th Ave NE,47.6684456,-122.29039
10510,NE 55th St & 36th Ave NE,47.6684456,-122.288803
10513,40th Ave NE & NE 46th St,47.6619339,-122.284668
10515,40th Ave NE & NE 50th St,47.6650925,-122.284698
10525,NE 55th St & 40th Ave NE,47.6684418,-122.285049
10550,NE 55th St & 45th Ave NE,47.6690025,-122.279121
10560,NE 55th St & Princeton Ave NE,47.6691818,-122.275909
10561,Sand Point Way NE & 38th Ave NE,47.6615753,-122.286484
10562,Sand Point Way NE & 40th Ave NE,47.6634483,-122.284119
10564,Sand Point Way NE & NE 50th St,47.6646538,-122.282867
10566,Sand Point Way NE & NE 52nd St,47.6670799,-122.28035
10568,Sand Point Way NE & Princeton Ave NE,47.6681938,-122.275978
10580,Sand Point Way NE & NE Windermere Rd,47.6702614,-122.270485
10600,Sand Point Way NE & NE 61st St,47.6729889,-122.266663
10620,Sand Point Way NE & NE 65th St,47.6759758,-122.263428
10630,Sand Point Way NE & NE 70th St,47.6797371,-122.263519
10640,Sand Point Way NE & NE 74th St,47.6817589,-122.263565
10641,Sand Point Way NE & NE 74th St,47.6824036,-122.263573
10650,Sand Point Way NE & NE 77th St,47.6850052,-122.264465
10653,NOAA & Building 1,47.6865425,-122.257362
10654,NE NOAA Dr,47.6861496,-122.260803
10657,NE NOAA Dr & Guard Shack,47.6862411,-122.259926
10658,NOAA & Building 3,47.6860123,-122.255531
10680,Sand Point Way NE & Inverness Dr NE,47.6928253,-122.270943
1070,Olive Way & Terry Ave,47.6148834,-122.331894
10700,Sand Point Way NE & Matthews Pl NE,47.6945229,-122.275177
10710,Sand Point Way NE & NE 93rd St,47.6961441,-122.276566
10720,Sand Point Way NE & NE 95th St,47.6972351,-122.277443
10730,Sand Point Way NE & NE 97th St,47.6990929,-122.277634
10750,Sand Point Way NE & NE 103rd St,47.7030869,-122.277565
10760,Sand Point Way NE & NE 106th St,47.7053642,-122.278374
10780,Sand Point Way NE & NE 110th St,47.7092285,-122.280212
10800,Sand Point Way NE & NE 115th St,47.7126198,-122.281837
10820,Sand Point Way NE & NE 120th St,47.7160149,-122.283005
10830,Sand Point Way NE & NE 123rd St,47.717598,-122.283928
10840,Sand Point Way NE & NE 125th St,47.7192917,-122.28669
1085,Pine St & 9th Ave,47.6133766,-122.332603
10860,NE 125th St & 35th Ave NE,47.7193222,-122.291412
10870,NE 125th St & 33rd Ave NE,47.7193375,-122.293205
10910,12th Ave NE & NE 47th St,47.662281,-122.315475
10911,U District Station - Bay 3,47.6612053,-122.313477
10912,15th Ave NE & NE 43rd St,47.6593704,-122.312096
10914,15th Ave NE & NE Campus Pkwy,47.6564217,-122.312164
10915,Harvard Ave E & Eastlake Ave E,47.6500931,-122.321999
10916,Harvard Ave E & Eastlake Ave E,47.649704,-122.322205
10917,15th Ave NE & NE 40th St,47.6548195,-122.31221
10920,Harvard Ave E & E Shelby St,47.647007,-122.322205
10940,10th Ave E & E Roanoke St,47.6429367,-122.32016
10950,10th Ave E & E Miller St,47.6411629,-122.32016
10970,10th Ave E & E Newton St,47.6370277,-122.320183
10990,10th Ave E & E Galer St,47.6321259,-122.320305
11010,10th Ave E & E Prospect St,47.6287384,-122.32032
11011,Broadway  E & E Roy St,47.625515,-122.32122
11012,E Aloha St & Broadway  E,47.6267662,-122.320961
11025,Boren Ave & Jefferson St,47.6060677,-122.322029
11030,E Roy St & Broadway  E,47.6251907,-122.320816
11033,Boren Ave & Marion St,47.608429,-122.324188
11035,Boren Ave & Madison St,47.6096344,-122.325294
11040,Broadway  E & E Republican St,47.6228943,-122.321014
11050,Broadway  E & E Thomas St,47.6208153,-122.320992
11060,Broadway & E Denny Way,47.6185379,-122.320946
11070,Broadway & E Pine St,47.6161919,-122.320923
11075,Boren Ave & Seneca St,47.6103745,-122.32621
11080,E Pine St & Broadway,47.615303,-122.321495
11085,Boren Ave & Madison St,47.6089554,-122.324913
11087,Boren Ave & Columbia St,47.6075935,-122.323669
11090,E Pine St & Belmont Ave,47.6152878,-122.325127
1110,Pine St & 5th Ave,47.6117668,-122.336456
11100,E Pine St & Bellevue Ave,47.6152992,-122.327271
11130,Pike St & Convention Pl,47.6123695,-122.33136
11132,Pike St & Boren Ave,47.6135788,-122.328445
11140,E Pine St & Summit Ave,47.6151581,-122.324638
11150,E Pine St & Harvard Ave,47.6151619,-122.321617
11175,Broadway & E Howell St,47.6181564,-122.320747
11180,Broadway  E & E John St,47.6201553,-122.320786
11190,Broadway  E & E Harrison St,47.6221962,-122.320816
11191,10th Ave E & E Mercer St,47.623951,-122.319992
1120,Pine St & 4th Ave,47.6111031,-122.338028
11200,Broadway  E & E Mercer St,47.6246109,-122.320839
11230,10th Ave E & E Prospect St,47.6288605,-122.320114
11250,10th Ave E & E Galer St,47.6322136,-122.320099
11270,10th Ave E & E Howe St,47.6361618,-122.319992
11290,10th Ave E & E Miller St,47.641571,-122.319969
11299,E Roanoke St & 10th Ave E,47.6431274,-122.319298
11300,E Roanoke St & Broadway  E,47.643261,-122.320747
11330,Harvard Ave E & E Shelby St,47.647171,-122.321999
11352,15th Ave NE & NE 42nd St,47.6586685,-122.311905
11356,NE 45th St & 17th Ave NE,47.6613274,-122.31012
11357,NE 45th St & 20th Ave NE,47.6613274,-122.306923
11358,U District Station - Bay 2,47.6613388,-122.313614
11370,15th Ave E & E Galer St,47.6324997,-122.312607
11390,15th Ave E & E Prospect St,47.628479,-122.312668
11400,15th Ave E & E Aloha St,47.6266823,-122.312668
11410,15th Ave E & E Roy St,47.6250267,-122.312698
11430,15th Ave E & E Republican St,47.6228943,-122.312737
11480,E Pine St & 15th Ave,47.6153564,-122.313255
11490,E Pine St & 13th Ave,47.615345,-122.31591
11520,E Pine St & 12th Ave,47.6152,-122.316483
11535,E Pine St & 15th Ave,47.6152115,-122.311852
11570,15th Ave E & E Harrison St,47.6226654,-122.312538
11590,15th Ave E & E Roy St,47.6254234,-122.312492
11600,15th Ave E & E Aloha St,47.6270981,-122.312469
11610,15th Ave E & E Prospect St,47.6289024,-122.312454
11620,15th Ave E & E Highland Dr,47.6308327,-122.312424
11630,Grandview Pl E & E Galer St,47.6325226,-122.311821
11640,Grandview Pl E & E Garfield St,47.634079,-122.311798
11680,Mount Rainier Dr S & S Hanford St,47.5756569,-122.284843
11690,Mount Rainier Dr S & S Ridgeway Pl,47.5765381,-122.28624
11700,S Mcclellan St & Lake Park Dr S,47.5784073,-122.288605
11720,S Mcclellan St & 31st Ave S,47.5784111,-122.292671
11730,31st Ave S & S Lander St,47.5798607,-122.292908
11750,31st Ave S & S College St,47.5827065,-122.292892
11770,31st Ave S & S Plum St,47.5850983,-122.292908
11790,31st Ave S & S Massachusetts St,47.5881615,-122.292442
1180,Pike St & 4th Ave,47.6100731,-122.336838
11800,31st Ave S & S Day St,47.5905342,-122.292305
11820,31st Ave S & S Norman St,47.5935059,-122.292656
11840,31st Ave S & S Dearborn St,47.5959206,-122.292603
11860,31st Ave S & S King St,47.597908,-122.292519
11870,S Jackson St & 30th Ave S,47.5992508,-122.29364
11880,S Jackson St & 28th Ave S,47.5992851,-122.296112
11890,S Jackson St & Martin L King Jr Way S,47.5993042,-122.297752
1190,Pike St & 6th Ave,47.6110344,-122.334526
11910,S Jackson St & 23rd Ave S,47.5993462,-122.302032
11920,S Jackson St & 20th Pl S,47.5993347,-122.304642
11940,S Jackson St & 18th Ave S,47.5993042,-122.309349
1195,Pike St & 7th Ave,47.6118088,-122.332687
11960,S Jackson St & Rainier Ave S,47.5991402,-122.313576
11980,S Jackson St & 18th Ave S,47.5991669,-122.309738
11990,S Jackson St & 20th Ave S,47.5991898,-122.305992
12010,S Jackson St & 23rd Ave S,47.5992203,-122.30143
12030,S Jackson St & 28th Ave S,47.5991478,-122.295952
12040,S Jackson St & 30th Ave S,47.5991173,-122.29393
12050,31st Ave S & S King St,47.597744,-122.29274
12070,31st Ave S & S Dearborn St,47.5955124,-122.292809
12080,31st Ave S & S Norman St,47.5930748,-122.292877
12090,31st Ave S & S Irving St,47.5909729,-122.292496
12110,31st Ave S & S Massachusetts St,47.5878716,-122.292648
12130,31st Ave S & S Plum St,47.5849571,-122.293098
12140,31st Ave S & S Walker St,47.5834236,-122.293106
1215,Union St & 5th Ave,47.6098289,-122.334511
12160,31st Ave S & S Lander St,47.579422,-122.293098
12170,S Mcclellan St & 31st Ave S,47.5782738,-122.292587
12190,S Mcclellan St & S Mount Baker Blvd,47.5782738,-122.288712
12200,Mount Rainier Dr S & 37th Pl S,47.5767555,-122.286827
12210,E Mcgilvra St & 42nd Ave E,47.6407738,-122.278122
12220,42nd Ave E & E Lynn St,47.6388626,-122.278534
12230,42nd Ave E & E Newton St,47.6367264,-122.278564
12240,42nd Ave E & E Madison St,47.6356049,-122.278572
12250,E Madison St & 41st Ave E,47.6347008,-122.279778
12260,E Madison St & E Garfield St,47.6335716,-122.281433
12270,E Madison St & 38th Ave E,47.6319466,-122.283836
12280,E Madison St & 36th Ave E,47.6302643,-122.286324
12290,E Madison St & 34th Ave E,47.6289024,-122.288345
1230,Union St & 4th Ave,47.6090813,-122.336288
12310,E Madison St & Lake Washington Blvd,47.6259193,-122.292725
12322,E Madison St & 28th Ave E,47.6231651,-122.296799
12340,E Madison St & 25th Ave E,47.6208687,-122.300186
12350,E Madison St & 23rd Ave E,47.6192856,-122.302536
12351,E Madison St & 22nd Ave E,47.617939,-122.304718
12352,E Madison St & 20th Ave,47.6173515,-122.306114
12353,E Madison St & 19th Ave,47.6166191,-122.307877
12354,E Madison St & 17th Ave,47.6155205,-122.310516
12355,E Madison St & 15th Ave,47.6143608,-122.313301
12371,E Madison St & 15th Ave,47.6146393,-122.312233
12372,E Madison St & 17th Ave,47.6154594,-122.310265
12373,E Madison St & 18th Ave,47.6161728,-122.308563
12375,E Madison St & 20th Ave,47.617363,-122.305702
12376,E Madison St & 22nd Ave,47.6182289,-122.303802
12377,E Madison St & 23rd Ave E,47.6192589,-122.302277
12378,E Madison St & 25th Ave E,47.6210938,-122.299561
12380,E Madison St & 27th Ave E,47.6224899,-122.297508
12390,E Madison St & 29th Ave E,47.6240654,-122.295189
12400,E Madison St & Lake Washington Blvd,47.626152,-122.292099
12410,E Madison St & 33rd Ave E,47.6281853,-122.289093
12420,E Madison St & 36th Ave E,47.62994,-122.286514
12430,E Madison St & 38th Ave E,47.631443,-122.284302
12440,E Madison St & 39th Ave E,47.6324272,-122.282822
12450,E Madison St & 41st Ave E,47.6343307,-122.280022
12460,43rd Ave E & E Blaine St,47.6348839,-122.277046
12470,43rd Ave E & E Madison St,47.636631,-122.277016
12480,43rd Ave E & E Lynn St,47.6390877,-122.276993
12481,Martin L King Jr Way S & S Judkins St,47.59161,-122.297646
12484,Martin L King Jr Way S & S Hill St,47.584259,-122.298248
12485,S Walker St & 25th Ave S,47.5837135,-122.299629
12486,Martin L King Jr Way S & S Bayview St,47.5810013,-122.296921
12487,Martin L King Jr Way S & S Massachusetts St,47.5879974,-122.298195
12496,S Plum St & 25th Ave S,47.5854111,-122.300079
12497,Martin L King Jr Way S & S Massachusetts St,47.5886765,-122.297852
1250,Seneca St & 4th Ave,47.6074219,-122.33461
12500,26th Ave S & S Norman St,47.5931625,-122.298958
12520,S Dearborn St & 26th Ave S,47.5956268,-122.299423
12532,23rd Ave S & S Lane St,47.5967102,-122.302124
12550,23rd Ave S & S Jackson St,47.5996971,-122.302124
12560,23rd Ave & E Yesler Way,47.6018944,-122.302299
1260,Seneca St & 6th Ave,47.6087418,-122.331482
12600,23rd Ave & E Jefferson St,47.6058998,-122.302887
12630,23rd Ave S & E Yesler Way,47.6012573,-122.302361
12640,23rd Ave S & S Jackson St,47.5989761,-122.302315
12660,S Dearborn St & 24th Ave S,47.5955009,-122.301636
12670,24th Ave S & S Norman St,47.5927429,-122.301292
12690,34th Ave & E Union St,47.6125031,-122.289421
1270,Spring St & 4th Ave,47.6068764,-122.333206
12700,34th Ave & E Marion St,47.6105156,-122.289474
12712,34th Ave & E Cherry St,47.6081123,-122.28952
12720,E Cherry St & 32nd Ave,47.6080322,-122.292
12740,E Cherry St & Martin L King Jr Way,47.6080627,-122.296158
12760,E Cherry St & 24th Ave,47.6080704,-122.300499
12770,23rd Ave & E Cherry St,47.6077118,-122.302879
12780,E Jefferson St & 23rd Ave,47.6062393,-122.303215
12790,E Jefferson St & 21st Ave,47.6062355,-122.305351
1280,Spring St & 6th Ave,47.6078453,-122.330856
12805,E Jefferson St & 18th Ave,47.6062508,-122.309669
12820,E Jefferson St & 15th Ave,47.606266,-122.313126
12840,E Jefferson St & 12th Ave,47.606266,-122.317108
12841,12th Ave & E Alder St,47.6045799,-122.316879
12842,12th Ave & E Terrace St,47.6050415,-122.316689
12860,Jefferson St & Broadway,47.6061554,-122.321167
12880,Jefferson St & 9th Ave,47.6049347,-122.324089
12890,James St & 8th Ave,47.6051865,-122.325813
12900,James St & 8th Ave,47.6051636,-122.3255
12910,9th Ave & Jefferson St,47.6048737,-122.324242
12930,E Jefferson St & Broadway,47.606144,-122.320229
12950,E Jefferson St & 12th Ave,47.6061249,-122.316376
12960,E Jefferson St & 14th Ave,47.6061249,-122.31356
12980,E Jefferson St & 17th Ave,47.6061096,-122.309929
12991,E Jefferson St & 20th Ave,47.6060982,-122.305962
1300,Madison St & 8th Ave,47.6080284,-122.328079
13005,21st Ave & E James St,47.607399,-122.304924
13020,E Cherry St & 23rd Ave,47.6079369,-122.30233
13030,E Cherry St & 25th Ave,47.6079369,-122.299774
13040,E Cherry St & Martin L King Jr Way,47.6079292,-122.296364
13060,E Cherry St & 31st Ave,47.6079063,-122.292305
13070,E Cherry St & 33rd Ave,47.6078835,-122.290253
13080,34th Ave & E Columbia St,47.6094742,-122.289299
13090,E Spring St & 34th Ave,47.6117134,-122.29023
13190,Interlaken Turnback Loop & 19th Ave E,47.6325073,-122.307373
13200,19th Ave E & E Galer St,47.631897,-122.307327
13210,19th Ave E & E Highland Dr,47.6304359,-122.307358
13220,19th Ave E & E Prospect St,47.6284943,-122.307373
13230,19th Ave E & E Aloha St,47.6266518,-122.307411
13240,19th Ave E & E Mercer St,47.6241951,-122.307396
13250,19th Ave E & E Harrison St,47.6219025,-122.307426
13260,19th Ave E & E John St,47.6194572,-122.307465
13270,19th Ave & E Denny Way,47.6182632,-122.307495
13277,E Madison St & 13th Ave,47.6131248,-122.316277
13282,E Madison St & Broadway Ct,47.6116257,-122.319855
13283,Madison St & Summit Ave,47.610424,-122.322723
13284,Madison St & Boren Ave,47.609211,-122.325638
13285,Madison St & 9th Ave,47.6083336,-122.327736
13291,Madison St & Boren Ave,47.6094246,-122.324745
13292,Madison St & Summit Ave,47.6103477,-122.322533
13293,E Madison St & Broadway,47.6112671,-122.320335
13294,E Madison St & 14th Ave,47.6137772,-122.314308
13310,19th Ave E & E Denny Way,47.6186981,-122.307274
13320,19th Ave E & E John St,47.619873,-122.307259
13330,19th Ave E & E Thomas St,47.6206818,-122.307251
13340,19th Ave E & E Harrison St,47.6218605,-122.307236
13350,19th Ave E & E Republican St,47.6234016,-122.307205
13360,19th Ave E & E Roy St,47.6254692,-122.30722
13370,19th Ave E & E Aloha St,47.6270447,-122.30719
13380,19th Ave E & E Prospect St,47.6288605,-122.307167
13381,19th Ave E & E Highland Dr,47.630806,-122.307152
1340,Yesler Way & Prefontaine Pl S,47.6016464,-122.329582
13441,Bellevue Ave & E Olive Way,47.6167336,-122.326889
13460,Bellevue Ave & E Olive St,47.6165085,-122.326691
1350,Yesler Way & 6th Ave S,47.6016388,-122.32505
13540,NW 105th St & 14th Ave NW,47.7051239,-122.373596
13541,NW 103rd St & 13th Ave NW,47.7034264,-122.373131
13542,14th Ave NW & NW 100th St,47.7016335,-122.374199
13550,15th Ave NW & NW 100th St,47.7012444,-122.376877
13560,15th Ave NW & NW 96th St,47.6987267,-122.3769
13570,15th Ave NW & NW 92nd St,47.6956444,-122.3769
13585,15th Ave NW & NW 87th St,47.6930084,-122.37674
1360,Yesler Way & 5th Ave,47.6017799,-122.327141
13600,15th Ave NW & NW 85th St,47.6901588,-122.376915
13620,15th Ave NW & NW 80th St,47.6862793,-122.3769
13640,15th Ave NW & NW 75th St,47.682991,-122.376892
13660,15th Ave NW & NW 70th St,47.6788483,-122.376877
13670,15th Ave NW & NW 65th St,47.6760826,-122.376686
1370,Yesler Way & 3rd Ave,47.6017799,-122.329803
13700,15th Ave NW & NW 60th St,47.6724358,-122.376312
13721,15th Ave NW & NW Market St,47.6689072,-122.376312
13760,15th Ave NW & NW Leary Way,47.6631432,-122.37648
13770,15th Ave W & W Emerson St,47.6534042,-122.376328
13775,W Emerson Pl & 21st Ave W,47.6558075,-122.38372
13800,15th Ave W & W Dravus St,47.6480637,-122.376877
13810,15th Ave W & W Armour St,47.644825,-122.376328
13830,15th Ave W & W Wheeler St,47.6403198,-122.376312
13840,15th Ave W & W Armory Way,47.6372871,-122.376305
13870,Elliott Ave W & W Galer St,47.6318817,-122.375305
13890,Elliott Ave W & W Prospect St,47.6290588,-122.371742
13910,W Mercer St & 3rd Ave W,47.6245308,-122.360809
13950,1st Ave & Wall St,47.6144524,-122.348503
1400,Madison St & 5th Ave,47.6066818,-122.331688
14035,1st Ave & Cedar St,47.615818,-122.350487
14038,W Mercer St & 3rd Ave W,47.6246681,-122.361153
1404,S Washington St & 3rd Ave S,47.6008034,-122.329758
14070,Elliott Ave W & W Prospect St,47.6290131,-122.371414
14090,Elliott Ave W & W Galer St,47.6320915,-122.37529
14110,15th Ave W & W Newton St,47.6370888,-122.376099
14130,15th Ave W & W Wheeler St,47.6409225,-122.376114
1415,Madison St & 4th Ave,47.6059036,-122.333534
14150,15th Ave W & W Armour St,47.6449356,-122.376122
14170,15th Ave W & W Dravus St,47.6491623,-122.376045
14190,15th Ave W & W Emerson St,47.6539421,-122.376122
14195,W Emerson Pl & 21st Ave W,47.6552963,-122.382843
1420,Madison St & 2nd Ave,47.6053276,-122.334923
14200,15th Ave NW & NW Leary Way,47.6634369,-122.375977
14230,15th Ave NW & NW Market St,47.6684799,-122.376114
14250,15th Ave NW & NW 60th St,47.6722946,-122.376114
14280,15th Ave NW & NW 65th St,47.6767349,-122.376671
14300,15th Ave NW & NW 70th St,47.6798744,-122.376671
14320,15th Ave NW & NW 75th St,47.6834221,-122.376686
14340,15th Ave NW & NW 80th St,47.68713,-122.376701
14360,15th Ave NW & NW 85th St,47.6909561,-122.376709
14370,15th Ave NW & NW 90th St,47.6937408,-122.376701
14380,15th Ave NW & NW 92nd St,47.6962891,-122.376701
14390,15th Ave NW & NW 96th St,47.6988297,-122.376701
14400,15th Ave NW & NW 100th St,47.7014084,-122.376671
14410,14th Ave NW & NW 100th St,47.7017822,-122.373993
14420,14th Ave NW & NW 103rd St,47.7033081,-122.373993
1471,S Jackson St & 5th Ave S,47.5991287,-122.328041
1480,S Jackson St & Maynard Ave S,47.5991173,-122.32457
1490,S Jackson St & 8th Ave S,47.5991173,-122.322044
14960,Alki Ave SW & 61st Ave SW,47.5789948,-122.410797
14961,61st Ave SW & SW Stevens St,47.5775185,-122.410797
14962,61st Ave SW & SW Admiral Way,47.5760269,-122.410835
14963,SW Admiral Way & 60th Ave SW,47.5758171,-122.409019
14970,SW Admiral Way & 59th Ave SW,47.5760765,-122.407791
14980,SW Admiral Way & 57th Ave SW,47.577034,-122.405182
1500,S Jackson St & 8th Ave S,47.5992661,-122.322327
15000,SW Admiral Way & SW Stevens St,47.5785828,-122.400917
15002,SW Admiral Way & 51st Ave SW,47.5791893,-122.396996
15030,SW Admiral Way & SW Lander St,47.5795288,-122.393799
15040,SW Admiral Way & 47th Ave SW,47.5811577,-122.391571
15050,SW Admiral Way & 45th Ave SW,47.5811424,-122.388924
15060,SW Admiral Way & California Ave SW,47.5811234,-122.386177
15070,SW Admiral Way & 41st Ave SW,47.5811119,-122.38398
15080,SW Admiral Way & 39th Ave SW,47.5810432,-122.38092
15090,SW Admiral Way & Belvidere Ave SW,47.5810242,-122.378922
1510,S Jackson St & Maynard Ave S,47.5992622,-122.32547
15100,SW Admiral Way & SW Olga St,47.5802498,-122.376793
15120,SW Admiral Way & SW City View St,47.573616,-122.373352
15140,SW Spokane St & 26th Ave SW,47.5714531,-122.365234
15145,SW Spokane St & Chelan Ave SW,47.5713043,-122.362411
15190,1st Ave S & S Spokane St,47.5723419,-122.333992
15201,1st Ave S & S Atlantic St,47.589901,-122.334297
15202,1st Ave S & S Holgate St,47.585762,-122.334297
15203,1st Ave S & S Stacy St,47.5815544,-122.334297
15204,Edgar Martinez Dr S & Occidental Ave S,47.5901985,-122.333473
15205,1st Ave S & S Hanford St,47.5759239,-122.334106
15206,1st Ave S & S Stacy St,47.5822334,-122.334106
15207,1st Ave S & S Holgate St,47.5864487,-122.334106
15211,1st Ave S & S Walker St,47.5836525,-122.334297
15212,1st Ave S & S Walker St,47.5842438,-122.334106
15230,1st Ave S & S Lander St,47.5796814,-122.334106
1530,S Jackson St & 5th Ave S,47.5992661,-122.328384
15380,1st Ave S & S Lander St,47.5792503,-122.334312
15395,1st Ave S & S Hanford St,47.5757523,-122.334312
1540,James St & 5th Ave,47.6038017,-122.329094
15451,SW Spokane St & Chelan Ave SW,47.5717201,-122.363365
15460,SW Spokane St & 26th Ave SW,47.5717125,-122.366165
15480,SW Admiral Way & SW City View St,47.5740433,-122.373474
15500,SW Admiral Way & SW Olga St,47.5801315,-122.376564
1551,S Jackson St & Occidental Ave Walk,47.5992737,-122.333282
15521,SW Admiral Way & 38th Ave SW,47.5812531,-122.380676
15532,SW Admiral Way & 41st Ave SW,47.5812454,-122.384743
15540,SW Admiral Way & California Ave SW,47.5812683,-122.386871
15570,SW Admiral Way & SW Waite St,47.5810471,-122.392273
1558,Columbia St & Alaskan Way,47.6024704,-122.33712
15580,SW Admiral Way & 49th Ave SW,47.5798187,-122.393707
15588,SW Admiral Way & 51st Ave SW,47.5793343,-122.397163
1559,Alaskan Way & Columbia St,47.602356,-122.337013
1560,James St & 3rd Ave,47.602932,-122.330826
1561,Alaskan Way S & S Jackson St,47.5996933,-122.335815
15610,SW Admiral Way & SW Lander St,47.5788994,-122.400673
1562,Alaskan Way S & S Jackson St,47.5987091,-122.336014
15630,SW Admiral Way & 57th Ave SW,47.5771675,-122.405319
15650,SW Admiral Way & 61st Ave SW,47.5759735,-122.41066
15651,63rd Ave SW & SW Admiral Way,47.5762405,-122.413239
15652,63rd Ave SW & Alki Ave SW,47.5782089,-122.413185
1570,James St & 5th Ave,47.6037712,-122.328773
1580,Marion St & 2nd Ave,47.6045341,-122.334076
1590,Marion St & 4th Ave,47.6054611,-122.331863
1610,Prefontaine Pl S & Yesler Way,47.6016579,-122.329941
16100,Aurora Village Transit Center - Bay 10,47.7742424,-122.342407
16101,Aurora Village Transit Center - Bay 1,47.7745056,-122.341988
16102,Aurora Village Transit Center - Bay 2,47.7745056,-122.3414
16103,Aurora Village Transit Center - Bay 3,47.7745056,-122.340881
16106,Aurora Village Transit Center - Bay 6,47.774395,-122.341034
16112,Aurora Village Transit Center - Bay 12,47.7742348,-122.341301
16132,N 192nd St & Aurora Ave N,47.7677078,-122.346451
16140,Meridian Ave N & N 203rd St,47.7756462,-122.335358
16160,Meridian Ave N & N 198th St,47.7721138,-122.335304
16170,Meridian Ave N & N 194th St,47.7698402,-122.335266
16180,Meridian Ave N & N 190th St,47.7666931,-122.335197
1619,Westlake Ave & Virginia St,47.6148643,-122.33786
16190,Meridian Ave N & N 188th St,47.7653694,-122.335167
16200,Meridian Ave N & N 185th St,47.7629204,-122.335114
16210,Meridian Ave N & N 183rd St,47.7615395,-122.335091
16220,Meridian Ave N & N 180th St,47.7593842,-122.33503
16230,Meridian Ave N & N 178th St,47.7575531,-122.334991
16240,Meridian Ave N & N 175th St,47.7555656,-122.334938
16250,Meridian Ave N & N 170th St,47.7525482,-122.334885
16260,Meridian Ave N & N 167th St,47.750267,-122.334839
16270,Meridian Ave N & N 165th St,47.7484436,-122.334801
16280,Meridian Ave N & N 163rd St,47.7466393,-122.334747
16290,Meridian Ave N & N 160th St,47.7448349,-122.334694
1630,Westlake Ave & Olive Way,47.6132812,-122.337547
16300,Meridian Ave N & N 158th St,47.7434006,-122.334648
16310,Meridian Ave N & N 155th St,47.7411385,-122.334579
16330,Meridian Ave N & N 150th St,47.7375755,-122.334473
16340,Meridian Ave N & N 148th St,47.736145,-122.33445
16380,Northgate Station - Bay 2,47.7020226,-122.328392
16390,NE Ravenna Blvd & Woodlawn Ave NE,47.6784592,-122.32486
16400,NE Ravenna Blvd & NE 68th St,47.6773109,-122.323807
16409,NE Ravenna Blvd & I-5,47.6747398,-122.321442
16416,NE 65th St & 8th Ave NE,47.6757851,-122.320129
16419,8th Ave NE & NE 64th St,47.6753807,-122.319954
16430,Roosevelt Station - Bay 1,47.6757507,-122.316673
16440,Roosevelt Station Bay 5 - Bay 5,47.675457,-122.317467
16460,Roosevelt Way NE & NE Ravenna Blvd,47.6723557,-122.317467
16465,NE Ravenna Blvd & Roosevelt Way NE,47.6718483,-122.316971
16480,Roosevelt Way NE & NE 55th St,47.668396,-122.317467
1651,S Jackson St & 5th Ave S,47.5992622,-122.327263
16515,NE Ravenna Blvd & NE 68th St,47.6778717,-122.323586
1652,S Jackson St & 5th Ave S,47.5991249,-122.327286
16520,NE Ravenna Blvd & Woodlawn Ave NE,47.6788406,-122.324486
16570,Meridian Ave N & N 145th St,47.7338905,-122.334175
16580,Meridian Ave N & N 148th St,47.7366714,-122.334251
16590,Meridian Ave N & N 150th St,47.7380981,-122.334282
1661,S Jackson St & 8th Ave S,47.5992661,-122.323341
16610,Meridian Ave N & N 155th St,47.7416382,-122.334389
1662,S Jackson St & 8th Ave S,47.5991249,-122.323395
16620,Meridian Ave N & N 156th Pl,47.7431755,-122.33445
16630,Meridian Ave N & N 159th St,47.7447739,-122.334488
16640,Meridian Ave N & N 163rd St,47.7470551,-122.334557
16650,Meridian Ave N & N 165th St,47.7489624,-122.33461
16660,Meridian Ave N & N 167th St,47.7508011,-122.334641
16670,Meridian Ave N & N 170th St,47.7522964,-122.334663
16680,Meridian Ave N & N 175th St,47.7562981,-122.334763
16690,Meridian Ave N & N 178th St,47.7580833,-122.334801
16700,Meridian Ave N & N 180th St,47.7599068,-122.334839
1671,S Jackson St & 12th Ave S,47.5992737,-122.315536
16710,Meridian Ave N & N 183rd St,47.7616997,-122.334885
1672,S Jackson St & 12th Ave S,47.5991402,-122.315529
16720,Meridian Ave N & N 185th St,47.7635231,-122.334923
16730,Meridian Ave N & N 187th St,47.7650604,-122.334969
16740,Meridian Ave N & N 190th St,47.7671661,-122.335007
16750,Meridian Ave N & N 193rd St,47.7694397,-122.33506
16760,Meridian Ave N & N 198th St,47.7724457,-122.335098
16770,N 200th St & Burke Ave N,47.7742424,-122.3367
16800,Meridian Ave N & N 145th St,47.7338181,-122.334381
1681,14th Ave S & S Washington St,47.6005745,-122.31424
16810,Meridian Ave N & N 143rd St,47.7321053,-122.334366
1682,14th Ave S & S Washington St,47.6005936,-122.314041
16830,Meridian Ave N & Roosevelt Way N,47.7288094,-122.33432
16840,Meridian Ave N & N 135th St,47.7265778,-122.334297
16850,Meridian Ave N & N 133rd St,47.725132,-122.334297
16860,Meridian Ave N & N 130th St,47.72295,-122.334282
16870,N 128th St & Meridian Ave N,47.722084,-122.334572
16880,Densmore Ave N & N 128th St,47.7215309,-122.337708
16890,Densmore Ave N & N 125th St,47.7192917,-122.33857
1690,3rd Ave & Vine St,47.6169586,-122.34845
16900,Densmore Ave N & N 122nd St,47.7171326,-122.33741
16914,Northwest Hospital,47.7137337,-122.336479
16920,Meridian Ave N & N 120th St,47.7159996,-122.334213
16940,Meridian Ave N & N 115th St,47.7119713,-122.33416
16960,Meridian Ave N & N Northgate Way,47.70821,-122.334091
16980,Meridian Ave N & N 105th St,47.7051201,-122.334038
16990,College Way N & N 103rd St,47.7030525,-122.334106
17010,College Way N & N 97th St,47.6993408,-122.335297
17022,N 92nd St & Corliss Ave N,47.6958542,-122.330673
17024,1st Ave NE & NE 95th St,47.6979218,-122.328354
17040,Wallingford Ave N & N 90th St,47.6942482,-122.336578
17070,Wallingford Ave N & N 82nd St,47.68853,-122.33651
17080,Wallingford Ave N & N 80th St,47.6870499,-122.336494
17081,Wallingford Ave N & East Green Lake Dr N,47.6857948,-122.336861
1710,Terrace St & 5th Ave,47.602047,-122.328255
17100,N 80th St & Corliss Ave N,47.6867981,-122.330688
17110,1st Ave NE & N 80th St,47.6865921,-122.328423
17120,1st Ave NE & N 77th St,47.6848602,-122.328407
17140,Woodlawn Ave NE & Latona Ave NE,47.6820335,-122.326538
17160,Woodlawn Ave NE & NE 71st St,47.6795807,-122.324707
17170,Woodlawn Ave NE & 5th Ave NE,47.6781807,-122.325783
17180,Woodlawn Ave NE & 1st Ave NE,47.677597,-122.328697
17209,Woodlawn Ave N & N 63rd St,47.6745758,-122.333145
17230,Kirkwood Pl N & N 59th St,47.6715622,-122.333519
17250,N 56th St & Keystone Pl N,47.6687508,-122.332848
17260,Meridian Ave N & N 54th St,47.6677094,-122.333801
17280,Meridian Ave N & N 50th St,47.6648293,-122.333832
17300,Meridian Ave N & N 46th St,47.6619415,-122.333847
17310,N 45th St & Wallingford Ave N,47.6614609,-122.335556
17410,N 45th St & Wallingford Ave N,47.6613159,-122.335442
17420,Meridian Ave N & N 45th St,47.6616631,-122.333626
17440,Meridian Ave N & N 49th St,47.6639328,-122.333626
17460,Meridian Ave N & N 53rd St,47.6673775,-122.333595
17470,N 56th St & Keystone Pl N,47.6686668,-122.332603
17490,Kirkwood Pl N & N 59th St,47.6715355,-122.333275
17510,Woodlawn Ave N & N 63rd St,47.6743546,-122.33316
17530,Woodlawn Ave NE & Sunnyside Ave N,47.677475,-122.329132
17560,Woodlawn Ave NE & NE 71st St,47.6800385,-122.324486
17570,Woodlawn Ave NE & Latona Ave NE,47.6824112,-122.326836
17590,1st Ave NE & NE 77th St,47.6852646,-122.328217
17600,1st Ave NE & NE 80th St,47.6866188,-122.328217
17610,N 80th St & Corliss Ave N,47.6869316,-122.330269
17640,Wallingford Ave N & N 80th St,47.6873512,-122.336304
17650,Wallingford Ave N & N 82nd St,47.6889038,-122.336319
17680,Wallingford Ave N & N 90th St,47.6943626,-122.336388
17694,North Seattle College,47.6978226,-122.332741
17695,College Way N,47.6976929,-122.332558
17697,1st Ave NE & NE 95th St,47.6977348,-122.32856
17698,N 92nd St & Corliss Ave N,47.6959953,-122.330513
17710,College Way N & N 97th St,47.6992683,-122.334908
17730,College Way N & N 103rd St,47.7032013,-122.333794
17740,Meridian Ave N & N 105th St,47.7047577,-122.333832
17755,N Northgate Way & Meridian Ave N,47.7085342,-122.33461
17760,Meridian Ave N & N Northgate Way,47.7090034,-122.3339
17780,Meridian Ave N & N 115th St,47.7124557,-122.333969
17800,Meridian Ave N & N 120th St,47.7161446,-122.334023
17820,N 122nd St & Burke Ave N,47.7171898,-122.336456
17830,Densmore Ave N & N 125th St,47.7194862,-122.338463
17840,Densmore Ave N & N 128th St,47.7218781,-122.337318
17850,N 128th St & Meridian Ave N,47.7219467,-122.334526
17860,Meridian Ave N & N 130th St,47.723156,-122.334091
17870,Meridian Ave N & N 133rd St,47.7252731,-122.334091
17880,Meridian Ave N & N 135th St,47.727169,-122.334106
17890,Meridian Ave N & Roosevelt Way N,47.72892,-122.334122
17900,Meridian Ave N & N 140th St,47.730442,-122.334129
17950,View Ave NW & Loyal Ave NW,47.6953125,-122.401215
17951,Loyal Ave NW & Golden Gardens Dr NW,47.6938477,-122.399498
17952,Golden Gardens Dr NW & NW 87th St,47.6923676,-122.398811
17960,32nd Ave NW & NW 85th St,47.6901321,-122.398415
17970,32nd Ave NW & NW 80th St,47.6880112,-122.398407
17980,32nd Ave NW & NW 80th St,47.6863518,-122.398392
17990,32nd Ave NW & NW 77th St,47.6849747,-122.398415
18000,32nd Ave NW & NW 75th St,47.6833191,-122.398407
18010,32nd Ave NW & NW 73rd St,47.6816788,-122.398499
18020,32nd Ave NW & NW 72nd St,47.6807098,-122.398499
18030,32nd Ave NW & NW 70th St,47.679245,-122.398483
18040,32nd Ave NW & NW 67th St,47.6770477,-122.398476
18041,32nd Ave NW & NW 64th St,47.6744804,-122.398483
18050,32nd Ave NW & NW 61st St,47.6727791,-122.398476
18060,32nd Ave NW & NW 59th St,47.67136,-122.39843
18066,NW Market St & 32nd Ave NW,47.6685524,-122.397911
18070,32nd Ave NW & NW 56th St,47.6696053,-122.39843
18085,32nd Ave NW & NW Market St,47.6679344,-122.398415
18090,NW 54th St & 30th Ave NW,47.6676369,-122.39653
18100,NW Market St & 28th Ave NW,47.6685905,-122.393089
18120,NW Market St & Ballard Ave NW,47.6686134,-122.385468
18145,Leary Ave NW & NW Vernon Pl,47.6673164,-122.383018
18150,Leary Ave NW & NW Ione Pl,47.6653595,-122.380714
18165,NW Leary Way & 15th Ave NW,47.6635933,-122.375587
18170,W Nickerson St & W Emerson St,47.6541901,-122.375465
18180,W Nickerson St & 12th Ave W,47.6549759,-122.372124
18190,W Nickerson St & Jesse Ave W,47.6536293,-122.36985
18200,W Nickerson St & 8th Ave W,47.6521187,-122.36689
18210,W Nickerson St & 6th Ave W,47.6515121,-122.364243
18220,W Nickerson St & 3rd Ave W,47.6506805,-122.36055
18230,W Nickerson St & Queen Anne Ave N,47.6497917,-122.357918
18240,Nickerson St & Warren Ave N,47.6482658,-122.354568
18250,Nickerson St & Florentia St,47.6471024,-122.352066
18260,Dexter Ave N & 4th Ave N,47.6454163,-122.349243
18270,Dexter Ave N & Wheeler St,47.6437111,-122.346031
18295,Dexter Ave N & 6th Ave N,47.640152,-122.344444
18315,Dexter Ave N & Crockett St,47.6373711,-122.343315
18320,Dexter Ave N & Howe St,47.6357193,-122.3424
18340,Dexter Ave N & Galer St,47.631958,-122.342384
18359,Dexter Ave N & Aloha St,47.6272392,-122.342438
18370,Dexter Ave N & Roy St,47.6251564,-122.342453
18390,Dexter Ave N & Harrison St,47.6218643,-122.342476
18402,Dexter Ave & Denny Way,47.6183014,-122.342506
18440,Blanchard St & 6th Ave,47.6158562,-122.340881
18455,Dexter Ave N & Harrison St,47.6224022,-122.34227
18465,Dexter Ave N & Mercer St,47.6253242,-122.342247
18480,Dexter Ave N & Aloha St,47.6274071,-122.342216
18505,Dexter Ave N & Galer St,47.6325722,-122.342178
18530,Dexter Ave N & Newton St,47.6361084,-122.342369
18540,Dexter Ave N & Crockett St,47.6380997,-122.343513
18550,Dexter Ave N & Wheeler St,47.6412125,-122.344543
18580,Dexter Ave N & 4th Ave N,47.643898,-122.345978
18590,Dexter Ave N & 4th Ave N,47.645462,-122.349037
18600,Nickerson St & 3rd Ave N,47.6471024,-122.351685
18610,Nickerson St & Warren Ave N,47.6488113,-122.355431
18620,Nickerson St & Cremona St,47.6496811,-122.3573
18630,W Nickerson St & 3rd Ave W,47.6509857,-122.361244
18640,W Nickerson St & 6th Ave W,47.6517906,-122.364815
18650,W Nickerson St & 8th Ave W,47.6523781,-122.367371
18660,W Nickerson St & Jesse Ave W,47.6539688,-122.370102
18670,W Nickerson St & 11th Ave W,47.6549034,-122.371696
18680,W Nickerson St & W Emerson St,47.6544151,-122.37574
18696,NW Leary Way & 15th Ave NW,47.6637306,-122.37709
18706,Leary Ave NW & NW Ione Pl,47.6655273,-122.380646
18720,Leary Ave NW & NW Vernon Pl,47.6672096,-122.382637
18740,NW Market St & Ballard Ave NW,47.6687469,-122.386124
18760,NW Market St & 28th Ave NW,47.6687241,-122.392639
18770,NW 54th St & NW Market St,47.6683807,-122.395302
18785,NW Market St & 30th Ave NW,47.6687088,-122.396057
18790,32nd Ave NW & NW Market St,47.6685524,-122.398216
18800,32nd Ave NW & NW 56th St,47.6697845,-122.398224
18810,32nd Ave NW & NW 58th St,47.6711693,-122.398224
18820,32nd Ave NW & NW 60th St,47.6724052,-122.398254
18830,32nd Ave NW & NW 62nd St,47.6738815,-122.398277
18840,32nd Ave NW & NW 64th St,47.6753845,-122.398277
18850,32nd Ave NW & NW 66th St,47.6767731,-122.39827
18860,32nd Ave NW & NW 69th St,47.6786613,-122.398277
18870,32nd Ave NW & NW 71st St,47.680439,-122.398293
18880,32nd Ave NW & NW 73rd St,47.6818581,-122.398293
1889,Vashon Island Water Taxi & Colman Dock,47.601223,-122.338928
18890,32nd Ave NW & NW 75th St,47.6835175,-122.398201
1890,Marion St & 1st Ave,47.6041451,-122.335022
18900,32nd Ave NW & NW 77th St,47.6850853,-122.398216
18910,32nd Ave NW & NW 80th St,47.6869888,-122.398201
18920,32nd Ave NW & Loyal Way NW,47.6883469,-122.398216
18930,32nd Ave NW & NW 85th St,47.6900215,-122.398216
18940,Golden Gardens Dr NW & NW 87th St,47.6925926,-122.39872
18941,Golden Gardens Dr NW & Loyal Ave NW,47.6938362,-122.399452
18942,View Ave NW & Golden Gardens Dr NW,47.6942749,-122.400757
18990,Fauntleroy Way SW & SW Morgan St,47.5449982,-122.386086
19000,Fauntleroy Way SW & SW Juneau St,47.5504341,-122.381996
19010,Fauntleroy Way SW & SW Dawson St,47.5559349,-122.381424
19020,Fauntleroy Way SW & SW Alaska St,47.5604973,-122.381371
19060,Fauntleroy Way SW & SW Dawson St,47.5554428,-122.381645
1907,West Seattle Water Taxi & Colman Dock,47.6011467,-122.338737
19070,Fauntleroy Way SW & SW Juneau St,47.550106,-122.382751
19080,24th Ave NW & NW 87th St,47.692379,-122.387474
19090,24th Ave NW & NW 90th St,47.6947594,-122.387459
19110,24th Ave NW & NW 95th St,47.6983147,-122.387459
19120,24th Ave NW & NW 96th St,47.6990242,-122.387459
19130,NW Neptune Pl & 24th Ave NW,47.7006416,-122.387764
19140,Triton Dr NW & NW Esplanade St,47.7013168,-122.390564
19160,Triton Dr NW & NW Golden Dr,47.698349,-122.393715
19170,28th Ave NW & NW 93rd St,47.6965561,-122.392998
19180,28th Ave NW & NW 90th St,47.694313,-122.393021
19190,28th Ave NW & NW 87th St,47.6920853,-122.393066
1920,Lenora St & 4th Ave,47.6139717,-122.341293
19210,NW 85th St & Earl Ave NW,47.6905022,-122.391617
19240,24th Ave NW & NW 85th St,47.6903267,-122.387695
19250,24th Ave NW & NW 83rd St,47.6884346,-122.387711
19260,24th Ave NW & NW 80th St,47.6865692,-122.387695
19270,24th Ave NW & NW 77th St,47.6847267,-122.38768
19280,24th Ave NW & NW 75th St,47.682991,-122.387665
19300,24th Ave NW & NW 70th St,47.679203,-122.387642
19320,24th Ave NW & NW 65th St,47.6755562,-122.387695
19340,24th Ave NW & NW 61st St,47.6729012,-122.387695
19360,24th Ave NW & NW 57th St,47.6699638,-122.387695
19380,Elliott Ave W & W Roy St,47.6263123,-122.368088
19390,Elliott Ave W & W Mercer St,47.6245308,-122.365662
19410,Elliott Ave W & W Harrison St,47.6223145,-122.363022
19420,Western Ave W & Elliott Ave W,47.619957,-122.359802
19440,Denny Way & Queen Anne Ave N,47.6186562,-122.356606
19460,Western Ave W & Elliott Ave W,47.6199646,-122.359512
19470,Elliott Ave W & 4th Ave W,47.6214409,-122.36174
19480,Elliott Ave W & 6th Ave W,47.623394,-122.364059
19490,Elliott Ave W & W Mercer St,47.6252823,-122.366394
19500,Elliott Ave W & W Mercer Pl,47.6264153,-122.367958
19510,24th Ave NW & NW 57th St,47.6702995,-122.387489
19530,24th Ave NW & NW 61st St,47.6733627,-122.387489
19550,24th Ave NW & NW 65th St,47.6761398,-122.387436
19570,24th Ave NW & NW 70th St,47.6797333,-122.387451
19590,24th Ave NW & NW 75th St,47.6833725,-122.387459
19600,24th Ave NW & NW 77th St,47.6851501,-122.387489
19610,24th Ave NW & NW 80th St,47.6870003,-122.387505
19620,24th Ave NW & NW 83rd St,47.6886024,-122.387505
19630,24th Ave NW & NW 85th St,47.6909218,-122.387489
19650,SW Wildwood Pl & 45th Ave SW,47.5209999,-122.390617
19670,Fauntleroy Way SW & SW Barton St,47.5231781,-122.392899
19700,Fauntleroy Way SW & SW Rose St,47.529995,-122.392609
19740,Fauntleroy Way SW & SW Webster St,47.5360489,-122.392342
19750,Fauntleroy Way SW & SW Myrtle St,47.5398674,-122.390511
19790,California Ave SW & Fauntleroy Way SW,47.545311,-122.387108
19810,California Ave SW & SW Raymond St,47.5487518,-122.387039
19830,California Ave SW & SW Findlay St,47.5523682,-122.386932
19850,California Ave SW & SW Dawson St,47.5559464,-122.386833
19861,SW Edmunds St & 44th Ave SW,47.5594063,-122.387924
19862,SW Alaska St & California Ave SW - Bay 1,47.5610542,-122.386871
19875,SW Alaska St & 42nd Ave SW,47.5610123,-122.384987
19898,SW Avalon Way & SW Bradford St,47.5688667,-122.37085
19921,SW Avalon Way & SW Genesee St,47.5649452,-122.372284
19922,SW Genesee St & 30th Ave SW,47.5646477,-122.370361
19930,SW Avalon Way & SW Yancy St,47.5678825,-122.370674
19940,SW Avalon Way & SW Charlestown St,47.5700951,-122.370605
19977,SW Genesee St & 26th Ave SW,47.5647926,-122.365265
19978,SW Genesee St & 30th Ave SW,47.5647812,-122.370522
19980,SW Avalon Way & SW Genesee St,47.5647736,-122.372597
20040,SW Alaska St & 42nd Ave SW,47.5611534,-122.385315
20041,SW Alaska St & California Ave SW - Bay 3,47.561203,-122.387383
20050,California Ave SW & Erskine Way SW,47.5588989,-122.38694
20070,California Ave SW & SW Dawson St,47.5555115,-122.387039
20090,California Ave SW & SW Findlay St,47.5517693,-122.387146
2010,10th Ave W & W Armour St,47.6451111,-122.370277
20110,California Ave SW & SW Raymond St,47.5482559,-122.38726
20130,Fauntleroy Way SW & California Ave SW,47.5448647,-122.38768
20170,Fauntleroy Way SW & SW Myrtle St,47.5392952,-122.390984
20190,Fauntleroy Way SW & SW Webster St,47.5356216,-122.392723
2020,10th Ave W & W Bothwell St,47.643486,-122.370308
20220,Fauntleroy Way SW & SW Rose St,47.5295639,-122.39283
20250,Fauntleroy Way SW & SW Barton St,47.5230064,-122.393074
20270,SW Wildwood Pl & 46th Ave SW,47.5209351,-122.390892
2030,10th Ave W & W Halladay St,47.6417923,-122.370171
2050,10th Ave W & W Mcgraw St,47.6394577,-122.370399
20530,W Emerson St & Magnolia Blvd W,47.6541672,-122.411751
20540,West Viewmont Way W & W Ruffner St,47.6519165,-122.410538
20550,West Viewmont Way W & W Bertona St,47.6502647,-122.40966
20560,West Viewmont Way W & W Dravus St,47.6484299,-122.409676
20570,West Viewmont Way W & W Barrett St,47.6468773,-122.409676
20580,West Viewmont Way W & W Armour St,47.6450462,-122.409729
20590,West Viewmont Way W & W Raye St,47.64328,-122.409752
2060,10th Ave W & W Crockett St,47.6375847,-122.370438
20600,West Viewmont Way W & 42nd Ave W,47.6413994,-122.409782
20610,West Viewmont Way W & W Parkmont Pl,47.6402855,-122.409554
20620,West Viewmont Way W & Montavista Pl W,47.638485,-122.407188
20630,West Viewmont Way W & Constance Dr W,47.6373444,-122.406219
20640,Viewmont Way W & Edgemont Pl W,47.6377068,-122.403732
20650,35th Ave W & W Mcgraw St,47.6393433,-122.402267
20670,W Mcgraw St & 32nd Ave W,47.639492,-122.397896
20680,Condon Way W & W Crockett St,47.6377716,-122.395782
2070,10th Ave W & W Howe St,47.6357689,-122.370468
20700,28th Ave W & W Blaine St,47.6348763,-122.393158
20710,28th Ave W & W Eaton St,47.6331139,-122.393188
20720,W Galer St & Thorndyke Ave W,47.6322517,-122.391434
20730,Magnolia Brdg & Pier 91,47.6333809,-122.382378
20741,1st Ave & Broad St,47.616642,-122.352203
2080,10th Ave W & W Blaine St,47.6345634,-122.370483
20829,Denny Way & 2nd Ave N,47.61866,-122.352615
20860,Magnolia Brdg & Pier 91,47.6335487,-122.382896
20880,Thorndyke Ave W & W Hayes St,47.6340103,-122.391762
20890,28th Ave W & W Blaine St,47.6349182,-122.392952
2090,10th Ave W & W Galer St,47.6323662,-122.370506
20910,Condon Way W & W Crockett St,47.6375771,-122.395409
20940,Viewmont Way W & 35th Ave W,47.6390114,-122.402191
20950,Viewmont Way W & Edgemont Pl W,47.6379128,-122.403732
20960,West Viewmont Way W & Constance Dr W,47.6373329,-122.405907
20970,West Viewmont Way W & Montavista Pl W,47.6387177,-122.407257
20980,West Viewmont Way W & W Parkmont Pl,47.640213,-122.409279
20990,West Viewmont Way W & Westmont Way W,47.6423645,-122.409576
2100,Olympic Way W & W Lee St,47.6310806,-122.370155
21000,West Viewmont Way W & W Raye St,47.6434174,-122.409554
21010,West Viewmont Way W & W Armour St,47.6449356,-122.409523
21020,West Viewmont Way W & W Barrett Ln,47.6470833,-122.40947
21030,West Viewmont Way W & W Dravus St,47.648777,-122.40947
21040,West Viewmont Way W & W Bertona St,47.65065,-122.40947
21050,West Viewmont Way W & W Ruffner St,47.6522369,-122.410545
21080,SW Roxbury St & 15th Ave SW - Bay 3,47.5173035,-122.353569
21090,SW Roxbury St & 12th Ave SW,47.5172615,-122.350334
2110,Olympic Way W & 9th Ave W,47.6295013,-122.368637
21104,8th Ave SW & SW 99th St,47.5156784,-122.34539
21110,SW Roxbury St & 8th Ave SW,47.517231,-122.345062
21120,SW Roxbury St & 5th Ave SW,47.5171776,-122.341141
21140,Olson Pl SW & 3rd Ave SW,47.5197296,-122.338219
21141,Olson-Myers Way Park And Ride,47.5196114,-122.336197
21150,Olson Pl SW & 3rd Ave SW,47.5196915,-122.338547
21170,SW Roxbury St & 5th Pl SW,47.5173531,-122.342178
2120,Olympic Way W & 7th Ave W,47.6275978,-122.366112
21250,SW Roxbury St & 26th Ave SW,47.5172958,-122.36525
21280,SW Roxbury St & 20th Ave SW,47.5172958,-122.358894
21290,SW Roxbury St & 17th Ave SW,47.5172958,-122.356766
21292,16th Ave SW & SW Roxbury St - Bay 5,47.517849,-122.355057
21295,16th Ave SW & SW Barton St,47.5212784,-122.355019
2130,Olympic Way W & 5th Ave W,47.6266708,-122.363335
21310,Delridge Way SW & SW Cambridge St,47.5194206,-122.356903
21320,Delridge Way SW & SW Barton St,47.520874,-122.3582
21350,16th Ave SW & SW Henderson St,47.5231438,-122.355003
21360,16th Ave SW & SW Trenton St,47.5249634,-122.35498
21370,16th Ave SW & SW Cloverdale St,47.5267601,-122.35498
21380,16th Ave SW & SW Thistle St,47.5285187,-122.354965
21390,16th Ave SW & SW Elmgrove St,47.5302734,-122.35495
2140,W Olympic Pl & 3rd Ave W,47.6266556,-122.360306
21400,16th Ave SW & SW Kenyon St,47.5321198,-122.35495
21410,16th Ave SW & SW Holden St,47.5335159,-122.354935
21420,SW Austin St & Dumar Way SW,47.5346375,-122.356491
21430,Dumar Way SW & SW Orchard St,47.5376511,-122.358299
21440,SW Orchard St & Delridge Way SW,47.5379906,-122.360687
21450,Delridge Way SW & SW Myrtle St,47.5392494,-122.360825
21480,Delridge Way SW & SW Holly St,47.543251,-122.361115
2150,W Roy St & 2nd Ave W,47.6256561,-122.358765
21500,Delridge Way SW & SW Graham St,47.5467873,-122.362831
21560,Delridge Way SW & SW Hudson St,47.5574112,-122.362816
21590,Delridge Way SW & SW Oregon St,47.5631828,-122.363258
21600,Delridge Way SW & SW Genesee St,47.5650063,-122.363213
21620,Delridge Way SW & SW Andover St,47.5679398,-122.36319
21670,Airport Way S & Diagonal Ave S,47.5732346,-122.321838
21680,Airport Way S & S Horton St,47.5749893,-122.321304
21690,Airport Way S & S Stevens St,47.5771446,-122.321304
21700,Airport Way S & S Lander St,47.5794106,-122.321304
21710,Airport Way S & S Bayview St,47.5812607,-122.321289
21720,Airport Way S & S College St,47.5834236,-122.321304
21730,Airport Way S & S Hill St,47.5847359,-122.321289
21740,S Holgate St & Airport Way S,47.5862732,-122.3218
21765,6th Ave S & S Royal Brougham Way,47.5908852,-122.325867
2180,Queen Anne Ave N & W Harrison St,47.6218338,-122.356819
21833,6th Ave S & S Royal Brougham Way,47.5920486,-122.326073
21850,Airport Way S & S Royal Brougham Way,47.5921173,-122.323792
21860,Airport Way S & S Holgate St,47.5852432,-122.321495
21870,Airport Way S & S Walker St,47.5837555,-122.321495
21880,Airport Way S & S Stacy St,47.5816803,-122.321495
21890,Airport Way S & S Lander St,47.5795746,-122.321495
21910,Airport Way S & S Stevens St,47.576973,-122.32151
21920,Airport Way S & Diagonal Ave S,47.5741043,-122.32151
21940,Airport Way S & S Spokane St,47.5715904,-122.322861
21945,Kent Des Moines Park And Ride,47.3917961,-122.287567
21990,Delridge Way SW & SW Andover St,47.5675697,-122.363396
2200,Queen Anne Ave N & W John St,47.6192131,-122.35685
2201,S Lewis St & Sumac Dr,47.8487167,-121.970749
22010,Delridge Way SW & SW Genesee St,47.5644836,-122.363419
2202,N Kelsey St & Galaxy Way,47.8645172,-121.975014
2203,Us Hwy 2 & Sr 522 Ramp,47.8610916,-121.977966
2204,Freylands Blvd & Tye St SE,47.8710632,-122.009109
2205,Village Way & Sky River Pkwy,47.8489342,-121.984032
22050,Delridge Way SW & SW Hudson St,47.5575562,-122.363022
2206,S Lewis St & Powell St,47.8499641,-121.970932
22074,Delridge Way SW & SW Findlay St,47.5521736,-122.362885
22075,Delridge Way SW & SW Findlay St,47.5516472,-122.363091
22099,Delridge Way SW & SW Graham St,47.5467834,-122.363037
22120,Delridge Way SW & SW Holly St,47.5429955,-122.361313
22152,Delridge Way SW & SW Myrtle St,47.5386047,-122.361115
22158,Delridge Way SW & SW Holden St,47.5333824,-122.360535
22160,SW Orchard St & Delridge Way SW,47.537838,-122.36055
22165,Delridge Way SW & SW Thistle St,47.5280495,-122.360565
22170,Dumar Way SW & SW Orchard St,47.5376549,-122.358704
22174,Delridge Way SW & SW Henderson St,47.5229607,-122.360596
22180,SW Austin St & Dumar Way SW,47.5344925,-122.356468
22184,Delridge Way SW & SW Henderson St,47.5232506,-122.360252
22190,16th Ave SW & SW Holden St,47.5334358,-122.355141
22195,Delridge Way SW & SW Thistle St,47.5285683,-122.360359
2220,3rd Ave & Cedar St,47.6167755,-122.34845
22200,16th Ave SW & SW Kenyon St,47.5316353,-122.355156
22210,16th Ave SW & SW Elmgrove St,47.5298386,-122.355156
22220,16th Ave SW & SW Thistle St,47.5280457,-122.355171
22230,16th Ave SW & SW Cloverdale St,47.5262527,-122.355179
22244,16th Ave SW & SW Henderson St,47.5230179,-122.355209
22252,Delridge Way SW & SW Henderson St,47.5224648,-122.359871
22253,Delridge Way SW & SW Barton St,47.5207825,-122.358353
22255,SW Roxbury St & 16th Ave SW - Bay 6,47.517437,-122.355827
22256,SW Roxbury St & 20th Ave SW,47.5174294,-122.359543
22259,SW Roxbury St & 26th Ave SW,47.517437,-122.365715
22260,SW Roxbury St & 28th Ave SW,47.5174561,-122.36805
22261,SW Roxbury St & 30th Ave SW,47.517498,-122.371864
22264,35th Ave SW & SW Roxbury St,47.5168533,-122.3769
22280,SW 100th St & 35th Ave SW,47.5137939,-122.376945
22290,SW 100th St & 37th Ave SW,47.5138092,-122.37928
22300,SW 100th St & 39th Ave SW,47.5138206,-122.382149
22320,SW 100th St & 41st Ave SW,47.5138359,-122.384758
22330,SW 100th St & 42nd Ave SW,47.5138397,-122.386086
22340,44th Ave SW & SW 100th St,47.5135002,-122.388695
22360,44th Ave SW & Marine View Dr SW,47.5108185,-122.388824
22370,Marine View Dr SW & SW 104th St,47.5099602,-122.388214
22380,SW 106th St & California Ave SW,47.508213,-122.386742
22390,SW 106th St & 41st Ave SW,47.5081902,-122.384331
22400,SW 106th St & 39th Ave SW,47.5081673,-122.381653
22410,39th Ave SW & Marine View Dr SW,47.5065193,-122.381599
22420,Marine View Dr SW & SW 110th St,47.5046616,-122.380615
22430,Marine View Dr SW & SW 112th St,47.5028229,-122.380943
2244,Denny Way & 2nd Ave N,47.618515,-122.351715
22440,Marine View Dr SW & SW Ocean View Dr,47.5005722,-122.379417
2245,Denny Way & 5th Ave N,47.6185036,-122.347878
22450,Marine View Dr SW & SW Ocean View Dr,47.4993134,-122.377586
22460,35th Ave SW & 37th Ave SW,47.4999275,-122.376083
2247,Denny Way & 6th Ave,47.6184959,-122.345131
22470,35th Ave SW & SW 114th St,47.5012398,-122.376053
22480,35th Ave SW & SW 112th St,47.5026436,-122.376045
22490,35th Ave SW & SW 110th St,47.50457,-122.375977
2250,Denny Way & Dexter Ave,47.6184807,-122.342545
22500,35th Ave SW & SW 108th St,47.50634,-122.375908
22510,35th Ave SW & SW 106th St,47.5084229,-122.375824
22520,35th Ave SW & SW 104th St,47.5102081,-122.375793
22530,35th Ave SW & SW 102nd St,47.5121269,-122.376053
22540,35th Ave SW & SW 100th St,47.5139847,-122.376312
2255,Denny Way & Westlake Ave,47.6184692,-122.338219
22550,35th Ave SW & SW 98th St,47.5156403,-122.376534
22553,SW Barton St & 35th Ave SW,47.5209999,-122.376358
22557,SW Barton St & 26th Ave SW - Bay 1,47.5209618,-122.367355
22560,35th Ave SW & SW Roxbury St,47.5177307,-122.376778
22570,35th Ave SW & SW Cambridge St,47.5194969,-122.376686
22580,35th Ave SW & SW Barton St,47.5213013,-122.376656
22590,35th Ave SW & SW Henderson St,47.5230865,-122.376587
2260,Denny Way & Fairview Ave,47.6184616,-122.334572
22600,35th Ave SW & SW Trenton St,47.5249023,-122.376549
2262,Denny Way & Stewart St,47.6184273,-122.330925
22620,35th Ave SW & SW Thistle St,47.5285072,-122.376534
22630,35th Ave SW & SW Elmgrove St,47.5303574,-122.376549
22640,35th Ave SW & SW Kenyon St,47.5321617,-122.376534
22650,35th Ave SW & SW Holden St,47.5340843,-122.376518
22660,35th Ave SW & SW Webster St,47.5357895,-122.376503
22680,35th Ave SW & SW Myrtle St,47.5394669,-122.376465
22700,35th Ave SW & SW Holly St,47.5431404,-122.376381
22710,35th Ave SW & SW Morgan St,47.5450897,-122.376343
22730,35th Ave SW & SW Raymond St,47.5481567,-122.376274
2275,E Denny Way & Bellevue Ave E,47.6185646,-122.326553
22750,35th Ave SW & SW Findlay St,47.5521927,-122.376205
22770,35th Ave SW & SW Dawson St,47.555748,-122.376167
22780,35th Ave SW & SW Hudson St,47.557373,-122.376152
22790,35th Ave SW & SW Edmunds St,47.5591507,-122.376137
22820,35th Ave SW & SW Avalon Way,47.5635681,-122.376099
22830,35th Ave SW & SW Avalon Way,47.5635033,-122.376305
2285,Denny Way & Fairview Ave N,47.6186028,-122.334213
22850,SW Alaska St & 35th Ave SW,47.5611382,-122.3769
22860,35th Ave SW & SW Edmunds St,47.5590057,-122.376343
22870,35th Ave SW & SW Hudson St,47.5571861,-122.376358
22880,35th Ave SW & SW Dawson St,47.5553703,-122.376373
22900,35th Ave SW & SW Findlay St,47.5517159,-122.376411
2291,Denny Way & Westlake Ave,47.6186028,-122.338806
22912,35th Ave SW & SW Raymond St,47.5480804,-122.37648
22940,35th Ave SW & SW Morgan St,47.5441895,-122.376564
2295,Denny Way & Dexter Ave N,47.6186142,-122.342163
22950,35th Ave SW & SW Holly St,47.5426102,-122.376602
2297,Denny Way & 6th Ave N,47.6186295,-122.345291
22970,35th Ave SW & SW Myrtle St,47.5389748,-122.376686
22990,35th Ave SW & SW Webster St,47.5352287,-122.376709
2300,Denny Way & 5th Ave N,47.6186409,-122.347847
23000,35th Ave SW & SW Ida St,47.533905,-122.376724
23010,35th Ave SW & SW Kenyon St,47.5316162,-122.37674
23020,35th Ave SW & SW Elmgrove St,47.5301895,-122.37674
23030,35th Ave SW & SW Thistle St,47.528038,-122.37674
23050,35th Ave SW & SW Trenton St,47.5244026,-122.376755
23060,35th Ave SW & SW Henderson St,47.5229416,-122.376808
23070,35th Ave SW & SW Barton St,47.5208244,-122.376877
23080,35th Ave SW & SW Cambridge St,47.5190392,-122.3769
23170,5th Ave NE & NE 123rd St,47.7177277,-122.323639
23180,5th Ave NE & NE 120th St,47.7155838,-122.323586
2320,1st Ave & Broad St,47.6172066,-122.352859
23200,5th Ave NE & NE 115th St,47.7124138,-122.323494
23220,5th Ave NE & NE 112th St,47.7097893,-122.323425
23230,5th Ave NE & NE Northgate Way,47.7081947,-122.323364
23250,5th Ave NE & Northgate Mall,47.7059097,-122.323296
23272,5th Ave NE & NE 100th St,47.7017899,-122.323029
23273,NE 100th St & 4th Ave NE,47.7014008,-122.324051
2330,1st Ave N & Denny Way,47.6191177,-122.355362
23370,Roosevelt Way NE & NE 80th St,47.6864853,-122.317657
23390,Roosevelt Way NE & NE 75th St,47.6828651,-122.317589
23420,Roosevelt Way NE & NE 69th St,47.6785011,-122.317505
23421,Roosevelt Station Bay 4 - Bay 4,47.6767235,-122.317482
23500,11th Ave NE & NE 50th St,47.6651726,-122.316238
23510,11th Ave NE & NE 52nd St,47.6667137,-122.316208
23520,11th Ave NE & NE 55th St,47.6687584,-122.316185
23530,11th Ave NE & NE Ravenna Blvd,47.6713295,-122.316101
23540,12th Ave NE & NE 61st St,47.6726532,-122.315552
23561,Roosevelt Station - Bay 3,47.6771355,-122.315582
23580,12th Ave NE & NE 70th St,47.67976,-122.315536
23593,12th Ave NE & NE 75th St,47.6833801,-122.315186
23594,Lake City Way NE & 16th Ave NE,47.6879768,-122.311371
2360,1st Ave N & Republican St,47.6231232,-122.355309
23600,NE 75th St & 12th Ave NE,47.6831245,-122.315651
2361,Republican St & 1st Ave N,47.6231995,-122.355537
23610,Roosevelt Way NE & NE 75th St,47.6835442,-122.317398
2370,Mercer St & Queen Anne Ave N,47.624649,-122.356552
23750,5th Ave NE & NE 103rd St,47.7035408,-122.323051
23770,5th Ave NE & NE 106th St,47.706131,-122.323105
23785,5th Ave NE & NE 112th St,47.7098083,-122.323219
23800,5th Ave NE & NE 115th St,47.7124748,-122.323288
23820,5th Ave NE & NE 120th St,47.716114,-122.323395
23831,5th Ave NE & NE 123rd St,47.7178383,-122.323448
23872,NE 125th St & Roosevelt Way NE,47.7195282,-122.319199
23890,25th Ave NE & NE 80th St,47.6861153,-122.300934
23895,25th Ave NE & NE 75th St,47.6828232,-122.300858
2390,2nd Ave W & W Roy St,47.6258965,-122.359215
23905,25th Ave NE & NE 65th St,47.6762733,-122.300743
23910,25th Ave NE & NE 60th St,47.671875,-122.300743
23915,25th Ave NE & NE 55th St,47.668293,-122.30072
23920,25th Ave NE & NE Blakeley St,47.6657257,-122.30072
23925,25th Ave NE & NE 47th St,47.6629105,-122.301003
2400,W Olympic Pl & 3rd Ave W,47.6267929,-122.360535
2410,W Olympic Pl & 5th Ave W,47.6267967,-122.363159
2420,Olympic Way W & 7th Ave W,47.6278458,-122.366371
24250,34th Ave W & W Mcgraw St,47.6399498,-122.401093
24260,34th Ave W & W Mcgraw St,47.6398048,-122.400902
24270,34th Ave W & W Raye St,47.6430626,-122.400864
24280,34th Ave W & W Armour St,47.6451988,-122.400848
24290,34th Ave W & W Barrett St,47.6470566,-122.400826
2430,Olympic Way W & W Prospect St,47.6290665,-122.367966
24300,34th Ave W & W Dravus St,47.6488533,-122.400826
24310,34th Ave W & W Bertona St,47.6506462,-122.400826
24320,34th Ave W & W Ruffner St,47.6524467,-122.40081
24321,34th Ave W & W Ruffner St,47.6520462,-122.401016
24330,34th Ave W & W Emerson St,47.6542549,-122.40081
24340,34th Ave W & W Thurman St,47.6560745,-122.400795
24350,34th Ave W & W Elmore St,47.6579285,-122.400795
24360,W Government Way & 34th Ave W,47.6595726,-122.400505
24370,W Government Way & 32nd Ave W,47.6600037,-122.398582
24380,30th Ave W & W Mansell St,47.6583443,-122.396667
24390,30th Ave W & W Thurman St,47.6557808,-122.395767
2440,Olympic Way W & W Lee St,47.631279,-122.37011
24400,30th Ave W & W Emerson St,47.6541252,-122.395752
24410,W Tilden St & 30th Ave W,47.6530952,-122.395195
24420,W Tilden St & 28th Ave W,47.6530952,-122.393005
24430,28th Ave W & W Ruffner St,47.6520042,-122.392982
24440,28th Ave W & W Bertona St,47.6501274,-122.392998
24450,28th Ave W & W Dravus St,47.6483154,-122.393005
24460,28th Ave W & W Barrett St,47.6468773,-122.393005
24470,28th Ave W & W Fulton St,47.6457367,-122.393021
24480,28th Ave W & W Raye St,47.643322,-122.393051
24490,28th Ave W & W Smith St,47.6412163,-122.393074
2450,10th Ave W & W Galer St,47.6325035,-122.370308
24500,28th Ave W & W Lynn St,47.6389122,-122.39312
24510,28th Ave W & W Crockett St,47.637516,-122.393127
24540,28th Ave W & W Crockett St,47.637867,-122.392929
24544,28th Ave W & W Lynn St,47.6392937,-122.392914
24560,28th Ave W & W Halladay St,47.6422653,-122.392868
24570,28th Ave W & W Raye St,47.6435928,-122.392845
24580,28th Ave W & W Fulton St,47.6456947,-122.392815
24590,28th Ave W & W Barrett St,47.6470566,-122.392799
2460,10th Ave W & W Blaine St,47.6349564,-122.370262
24600,28th Ave W & W Dravus St,47.648777,-122.392799
24610,28th Ave W & W Bertona St,47.6506004,-122.392792
24620,28th Ave W & W Ruffner St,47.6522217,-122.392792
24630,W Tilden St & 29th Ave W,47.6532364,-122.394539
24640,30th Ave W & W Emerson St,47.6543198,-122.395561
24650,30th Ave W & W Thurman St,47.6562576,-122.395561
24660,31st Ave W & W Mansell St,47.6586494,-122.396721
24670,31st Ave W & W Jameson St,47.6599808,-122.397461
24680,W Government Way & 33rd Ave W,47.6600037,-122.399757
24690,34th Ave W & W Government Way,47.6587296,-122.401001
2470,10th Ave W & W Howe St,47.636158,-122.370247
24700,34th Ave W & W Elmore St,47.6575317,-122.401001
24710,34th Ave W & W Thurman St,47.6556129,-122.401001
24720,34th Ave W & W Emerson St,47.6537857,-122.401001
24740,34th Ave W & W Bertona St,47.6502571,-122.401016
24750,34th Ave W & W Dravus St,47.6484337,-122.401024
24760,34th Ave W & W Barrett St,47.6466255,-122.401039
24770,34th Ave W & W Armour St,47.6448097,-122.401054
24780,34th Ave W & W Raye St,47.6429825,-122.40107
2480,10th Ave W & W Crockett St,47.6379738,-122.370224
2490,10th Ave W & W Mcgraw St,47.6397667,-122.370087
24910,35th Ave NE & NE 123rd St,47.7171211,-122.291481
24920,35th Ave NE & NE 120th St,47.7152977,-122.291618
24940,35th Ave NE & NE 115th St,47.7117157,-122.290764
24950,35th Ave NE & NE 110th St,47.7081223,-122.290871
24960,35th Ave NE & NE 105th St,47.7045135,-122.290962
24980,35th Ave NE & NE 100th St,47.7008743,-122.290802
24990,35th Ave NE & NE 97th St,47.6990242,-122.290703
250,2nd Ave & Bell St,47.6137047,-122.345253
2500,10th Ave W & W Halladay St,47.6421928,-122.369965
25000,35th Ave NE & NE 94th St,47.6966324,-122.290695
25010,35th Ave NE & NE 92nd St,47.6954384,-122.290695
25020,35th Ave NE & NE 90th St,47.6935959,-122.290733
25040,35th Ave NE & NE 85th St,47.6899185,-122.290817
25050,35th Ave NE & NE 81st St,47.6871986,-122.290718
25070,35th Ave NE & NE 75th St,47.682682,-122.290565
25090,35th Ave NE & NE 70th St,47.6790237,-122.290474
2510,10th Ave W & W Newell St,47.644455,-122.370087
25100,35th Ave NE & NE 68th St,47.6772995,-122.290421
25110,35th Ave NE & NE 65th St,47.6755104,-122.290375
25130,35th Ave NE & NE 60th St,47.6719856,-122.290337
25140,35th Ave NE & NE 55th St,47.6687851,-122.290298
2520,9th Ave W & W Armour St,47.6453171,-122.369278
25200,NE 45th St & Union Bay Pl NE,47.6612816,-122.293724
25201,NE 45th St & University Village,47.6611023,-122.296974
25202,NE 45th St & University Village,47.6612778,-122.295418
25210,Montlake Blvd NE & NE 45th St,47.6610489,-122.298904
25240,Montlake Blvd NE & NE Pacific Pl - Bay 3,47.6501045,-122.304474
2550,7th Ave W & W Pleasant Pl,47.6426506,-122.366356
2570,W Mcgraw St & 6th Ave W,47.6395149,-122.365318
25752,Montlake Blvd E & E Shelby St,47.6462822,-122.304436
25755,Montlake Blvd NE & NE Pacific Pl - Bay 4,47.6504936,-122.304092
25765,Montlake Blvd NE & NE Pacific Pl - Bay 5,47.6515427,-122.30349
25790,Montlake Blvd NE & NE 45th St,47.6608543,-122.298584
25791,25th Ave NE & NE 47th St,47.6637039,-122.300804
25792,25th Ave NE & NE Blakeley St,47.6667557,-122.300514
25793,25th Ave NE & NE 55th St,47.6687355,-122.300529
25794,25th Ave NE & NE 60th St,47.6723785,-122.300545
25795,25th Ave NE & NE 65th St,47.6761932,-122.300545
25797,25th Ave NE & NE 75th St,47.6834068,-122.300667
25798,25th Ave NE & NE 80th St,47.6864815,-122.300743
2580,6th Ave W & W Crockett St,47.6375656,-122.365089
25840,35th Ave NE & NE 55th St,47.6687775,-122.290108
25860,35th Ave NE & NE 60th St,47.6723289,-122.290131
25880,35th Ave NE & NE 65th St,47.6760139,-122.290176
25890,35th Ave NE & NE 68th St,47.6777916,-122.29023
2590,6th Ave W & W Howe St,47.6360245,-122.365097
25900,35th Ave NE & NE 70th St,47.6796265,-122.290283
25920,35th Ave NE & NE 75th St,47.683403,-122.29039
25940,35th Ave NE & NE 80th St,47.6869316,-122.290497
25960,35th Ave NE & NE 85th St,47.6905174,-122.290611
25980,35th Ave NE & NE 89th St,47.6933403,-122.290543
260,2nd Ave & Lenora St,47.6120987,-122.342522
2600,6th Ave W & W Blaine St,47.6345253,-122.365128
26000,35th Ave NE & NE 93rd St,47.6962128,-122.290474
26010,35th Ave NE & NE 95th St,47.6977005,-122.290474
26020,35th Ave NE & NE 97th St,47.6996078,-122.290527
26030,35th Ave NE & NE 100th St,47.7015343,-122.290627
26050,35th Ave NE & NE 105th St,47.7050743,-122.290764
26060,35th Ave NE & NE 110th St,47.7086182,-122.290649
26080,35th Ave NE & NE 115th St,47.7121582,-122.290558
2610,6th Ave W & W Galer St,47.6324577,-122.365158
26100,35th Ave NE & NE 120th St,47.715744,-122.291389
26110,35th Ave NE & NE 123rd St,47.7175217,-122.291252
2620,W Galer St & 5th Ave W,47.6322632,-122.362793
26210,NE Ravenna Blvd & Woodlawn Ave NE,47.6787758,-122.325226
26220,4th Ave NE & NE 65th St,47.6759491,-122.32457
26230,Latona Ave NE & NE 64th St,47.6749153,-122.325554
26240,Latona Ave NE & NE 61st St,47.6726151,-122.325592
26250,Latona Ave NE & NE 59th St,47.67136,-122.325623
26270,Latona Ave NE & NE 55th St,47.668354,-122.325676
26290,Latona Ave NE & NE 51st St,47.665493,-122.325706
2630,W Galer St & 2nd Ave W,47.6322441,-122.358505
26301,Thackeray Pl NE & NE 50th St,47.6647301,-122.326233
26302,Thackeray Pl NE & NE 45th St,47.6616287,-122.326279
26369,NE 40th St & 1st Ave NE,47.6556129,-122.327423
26370,N 40th St & Eastern Ave N,47.6556282,-122.329376
26381,N 40th St & Bagley Ave N,47.6556664,-122.333145
2640,Queen Anne Ave N & W Galer St,47.6318359,-122.356697
26400,N 40th St & Wallingford Ave N,47.6557159,-122.336098
26410,Wallingford Ave N & N 39th St,47.6540909,-122.336388
26430,Wallingford Ave N & N 37th St,47.651783,-122.336411
26450,N 35th St & Wallingford Ave N,47.6492729,-122.33667
26460,N 35th St & Woodlawn Ave N,47.6492805,-122.339073
26480,N 35th St & Stone Way N,47.6495705,-122.343147
26490,N 35th St & Troll Ave N,47.6502151,-122.347343
26510,Fremont Ave N & N 34th St,47.6496773,-122.349869
26520,Westlake Ave N & Dexter Ave N,47.6458092,-122.349319
26560,Westlake Ave N & Crockett St,47.6380692,-122.340935
26580,Westlake Ave N & 8th Ave N,47.6348763,-122.340523
26590,Westlake Ave N & Galer St,47.6327477,-122.340897
2660,Queen Anne Ave N & W Highland Dr,47.629612,-122.356728
26600,Westlake Ave N & Highland Dr,47.6297951,-122.341087
26641,Westlake Ave N & Mercer St,47.6241531,-122.338547
26645,Westlake Ave N & Harrison St,47.6213799,-122.33857
26665,Westlake Ave & 9th Ave,47.617794,-122.338463
26680,Westlake Ave & Olive Way,47.6132927,-122.337341
26689,Westlake Ave & 7th Ave,47.6156235,-122.337807
26690,Westlake Ave & 9th Ave,47.6182671,-122.338341
26693,Terry Ave N & Thomas St,47.6215019,-122.337051
26698,Terry Ave N & Republican St,47.6234169,-122.337044
2670,Queen Anne Ave N & W Prospect St,47.6285133,-122.356781
26700,Fairview Ave N & Ward St,47.6276665,-122.332367
26701,South Lake Union Streetcar & Terry Ave N,47.6258316,-122.336372
26702,South Lake Union Streetcar & Terry Ave N,47.6259689,-122.336533
26705,Fairview Ave N & Aloha St,47.6275864,-122.332207
26715,Westlake Ave N & Harrison St,47.6218491,-122.338356
2672,Queen Anne Ave N & W Mercer St,47.6240616,-122.356812
26730,Westlake Ave N & Mercer St,47.6255035,-122.338394
26760,Westlake Ave N & Highland Dr,47.6299477,-122.340897
26770,Westlake Ave N & Galer St,47.6327248,-122.340706
26780,Westlake Ave N & 8th Ave N,47.6352043,-122.340317
2680,Queen Anne Ave N & W Aloha St,47.626545,-122.356796
26800,Westlake Ave N & Crockett St,47.6381645,-122.340775
26840,Westlake Ave N & Westlake Ave N,47.6441345,-122.345032
26850,Westlake Ave N & Westlake Aly,47.6455688,-122.348434
26860,Fremont Ave N & N 34th St,47.6498604,-122.349678
26870,N 35th St & Troll Ave N,47.650032,-122.347054
26885,N 35th St & Woodland Park Ave N,47.6495247,-122.34375
2690,1st Ave N & Mercer St,47.6247368,-122.355309
26901,N 35th St & Carr Pl N,47.6491432,-122.339073
26920,Wallingford Ave N & N 35th St,47.6494102,-122.336235
26940,Wallingford Ave N & N 37th St,47.652195,-122.336205
26965,N 40th St & Wallingford Ave N,47.6555786,-122.335701
26980,N 40th St & Bagley Ave N,47.6555138,-122.332314
26999,N 40th St & Eastern Ave N,47.6554909,-122.328735
27051,Latona Ave NE & NE 45th St,47.6616173,-122.325005
27052,Latona Ave NE & NE 50th St,47.6647377,-122.324951
27090,Latona Ave NE & NE 52nd St,47.6666603,-122.325485
2710,Queen Anne Ave N & Aloha St,47.6271095,-122.35659
27100,Latona Ave NE & NE 54th St,47.6680489,-122.325455
27120,Latona Ave NE & NE 58th St,47.6710281,-122.325432
27130,Latona Ave NE & NE 60th St,47.6724281,-122.325386
27140,Latona Ave NE & NE 62nd St,47.6736984,-122.325378
27150,Latona Ave NE & NE 65th St,47.675766,-122.325333
27160,2nd Ave NE & Woodlawn Ave NE,47.6778069,-122.327209
27175,36th Ave S & S Day St,47.588829,-122.28672
27180,Lakeside Ave S & S Day St,47.5903053,-122.286484
27190,Lakeside Ave S & S Judkins St,47.5923157,-122.287453
2720,Queen Anne Ave N & Ward St,47.6283188,-122.356575
27200,Lakeside Ave S & S Charles St,47.5947723,-122.287697
27210,Lakeside Ave S & S Lane St,47.5968056,-122.287262
27230,Lakeside Ave S & S Leschi Pl,47.5995979,-122.286224
27240,Lakeside Ave S & Lake Washington Blvd,47.6018524,-122.285156
27260,E Alder St & Erie Ave,47.6039467,-122.285675
27270,E Alder St & 35th Ave,47.6044502,-122.28833
27290,Lake Dell Ave & E Spruce St,47.6031799,-122.290161
2730,Queen Anne Ave N & Highland Dr,47.6297913,-122.356522
27300,Lake Dell Ave & 32nd Ave,47.6022644,-122.291153
27310,E Yesler Way & 32nd Ave,47.6017151,-122.291733
27320,E Yesler Way & 29th Ave,47.6017265,-122.295296
27335,E Yesler Way & 27th Ave,47.6017265,-122.29818
27350,E Yesler Way & 23rd Ave,47.6017342,-122.30217
27360,E Yesler Way & 21st Ave,47.601738,-122.305443
27370,E Yesler Way & 19th Ave,47.6017494,-122.308029
27380,E Yesler Way & 17th Ave,47.601757,-122.31073
27395,E Yesler Way & 14th Ave,47.601757,-122.313957
2740,Queen Anne Ave N & W Lee St,47.6314926,-122.356491
27420,E Yesler Way & Broadway,47.601757,-122.320297
27430,Yesler Way & 8th Ave,47.6017723,-122.323776
27480,Yesler Way & 8th Ave S,47.6016273,-122.323586
27500,E Yesler Way & Broadway,47.6016235,-122.319832
27510,E Yesler Way & 12th Ave S,47.6016197,-122.316254
27520,E Yesler Way & 14th Ave S,47.6016235,-122.313667
27530,E Yesler Way & 16th Ave S,47.6016197,-122.311211
27550,E Yesler Way & 20th Ave S,47.6016045,-122.306549
27560,E Yesler Way & 22nd Ave S,47.6016045,-122.304642
27570,E Yesler Way & 23rd Ave S,47.6016006,-122.301727
27590,E Yesler Way & 27th Ave S,47.6015854,-122.297539
2760,W Galer St & 1st Ave W,47.6323891,-122.358627
27600,E Yesler Way & 28th Ave S,47.6015854,-122.295525
27610,E Yesler Way & 30th Ave S,47.6015816,-122.293808
27620,E Yesler Way & 32nd Ave S,47.6015778,-122.291611
27630,Lake Dell Ave & 32nd Ave,47.6021233,-122.29084
27640,Lake Dell Ave & E Spruce St,47.6032906,-122.290024
27660,E Alder St & 35th Ave,47.6043091,-122.287766
27670,E Alder St & Erie Ave,47.6037979,-122.285217
27690,Lakeside Ave S & E Yesler Way,47.6016235,-122.285461
2770,W Galer St & 3rd Ave W,47.6323929,-122.36129
27700,Lakeside Ave S & S Leschi Pl,47.5995216,-122.286499
27720,Lakeside Ave S & S Lane St,47.5967445,-122.287498
27730,Lakeside Ave S & S Charles St,47.5945663,-122.287918
27745,Lakeside Ave S & S Day St,47.58955,-122.286392
27770,N 143rd St & Greenwood Ave N,47.7322464,-122.355103
27780,N 143rd St & Linden Ave N,47.7322464,-122.348267
27790,3rd Ave NW & NW 145th St,47.7335358,-122.361031
2780,W Galer St & 5th Ave W,47.6323929,-122.364037
27810,3rd Ave NW & NW 140th St,47.7304611,-122.361046
27820,3rd Ave NW & NW 137th St,47.7283669,-122.361046
27840,NW 132nd St & 3rd Ave NW,47.7251472,-122.361549
27860,8th Ave NW & NW 132nd St,47.7247429,-122.366455
27880,8th Ave NW & NW 127th St,47.7212067,-122.366463
27890,NW 125th St & 8th Ave NW,47.7196007,-122.365799
2790,6th Ave W & W Garfield St,47.6337013,-122.364937
27910,3rd Ave NW & NW 125th St,47.7192497,-122.361053
27930,3rd Ave NW & NW 120th St,47.716053,-122.361015
27940,3rd Ave NW & NW 117th St,47.7139626,-122.361
27950,3rd Ave NW & NW 115th St,47.7123375,-122.360977
27970,3rd Ave NW & NW 110th St,47.708828,-122.360916
27990,3rd Ave NW & NW 105th St,47.7048531,-122.360878
280,2nd Ave & Stewart St,47.6106148,-122.340248
2800,6th Ave W & W Howe St,47.6361618,-122.364899
28000,NW 103rd St & 3rd Ave NW,47.7035484,-122.361244
28010,NW 100th Pl & 7th Ave NW,47.7026291,-122.363785
28020,NW 100th Pl & NW 100th St,47.7017021,-122.365471
28030,8th Ave NW & NW 97th St,47.6999702,-122.36615
28040,8th Ave NW & NW 95th St,47.6985512,-122.366135
28060,8th Ave NW & NW 90th St,47.6940079,-122.366112
28080,8th Ave NW & NW 85th St,47.6903114,-122.366165
2810,6th Ave W & W Crockett St,47.63797,-122.364868
28100,8th Ave NW & NW 80th St,47.6866837,-122.366135
28120,8th Ave NW & NW 75th St,47.6834908,-122.366196
28130,8th Ave NW & NW 73rd St,47.6812057,-122.366203
28140,8th Ave NW & NW 70th St,47.6793327,-122.366203
28160,8th Ave NW & NW 65th St,47.6757965,-122.366135
28180,8th Ave NW & NW 61st St,47.6728363,-122.366249
2820,6th Ave W & W Mcgraw St,47.6398392,-122.364838
28210,8th Ave NW & NW Market St,47.6684189,-122.366287
28230,8th Ave NW & NW 51st St,47.6654549,-122.366287
28250,8th Ave NW & NW 46th St,47.6619339,-122.366287
28255,NW Leary Way & 11th Ave NW,47.6635895,-122.371025
28260,Leary Way NW & NW 43rd St,47.6587029,-122.364609
28265,Leary Way NW & 8th Ave NW,47.6607513,-122.366592
28280,Leary Way NW & 3rd Ave NW,47.6557999,-122.361778
28285,N 39th St & Greenwood Ave N,47.6540909,-122.355209
28287,N 39th St & Dayton Ave N,47.6540909,-122.352684
2830,6th Ave W & W Smith St,47.6416321,-122.364815
28300,N 36th St & 1st Ave NW,47.6528435,-122.357452
28310,N 36th St & Phinney Ave N,47.6520805,-122.35405
28350,N 36th St & Dayton Ave N,47.6519356,-122.352791
28370,NW 36th St & 1st Ave NW,47.6531563,-122.358185
28374,N 39th St & Evanston Ave N,47.6542168,-122.351524
28376,N 39th St & Phinney Ave N,47.6542282,-122.354919
28390,Leary Way NW & 3rd Ave NW,47.6555214,-122.361275
2840,6th Ave W & W Raye St,47.6430016,-122.364799
28410,Leary Way NW & NW 43rd St,47.65868,-122.364349
28415,Leary Way NW & 8th Ave NW,47.6610146,-122.3666
28416,NW Leary Way & 11th Ave NW,47.6637268,-122.371246
28425,8th Ave NW & NW 45th St,47.6617012,-122.366081
28450,8th Ave NW & NW 50th St,47.6652031,-122.366081
28470,8th Ave NW & NW Market St,47.6689339,-122.366081
28490,8th Ave NW & NW 60th St,47.6725426,-122.366058
2850,Madrona Park & Lake Washington Blvd,47.6121902,-122.2817
28510,8th Ave NW & NW 65th St,47.6763077,-122.365852
28530,8th Ave NW & NW 70th St,47.6797333,-122.365936
28540,8th Ave NW & NW 73rd St,47.6819572,-122.365875
28550,8th Ave NW & NW 75th St,47.6834564,-122.365868
28575,8th Ave NW & NW 80th St,47.6871758,-122.365921
2860,Madrona Dr & Newport Way,47.6135712,-122.282578
28600,8th Ave NW & NW 84th St,47.6900978,-122.365852
28630,8th Ave NW & NW 90th St,47.6945038,-122.365921
28650,8th Ave NW & NW 95th St,47.6981316,-122.365936
28670,8th Ave NW & NW 100th Pl,47.7011604,-122.365959
28680,NW 100th Pl & 7th Ave NW,47.7026215,-122.363472
2870,Madrona Dr & E Pine St,47.6152115,-122.283791
28700,3rd Ave NW & NW 105th St,47.7053452,-122.360672
28720,3rd Ave NW & NW 110th St,47.708992,-122.360725
28740,3rd Ave NW & NW 115th St,47.7125816,-122.360771
28750,3rd Ave NW & NW 117th St,47.7143478,-122.360809
28760,3rd Ave NW & NW 120th St,47.7161865,-122.360809
28780,NW 125th St & 3rd Ave NW,47.7197075,-122.361481
2880,Madrona Dr & E Olive St,47.616684,-122.284492
28800,NW 125th St & 8th Ave NW,47.7197342,-122.366219
28810,8th Ave NW & NW 127th St,47.7216415,-122.366264
28830,8th Ave NW & NW 132nd St,47.7249069,-122.366249
28850,NW 132nd St & 3rd Ave NW,47.7250137,-122.361153
28870,3rd Ave NW & NW 137th St,47.7290154,-122.360855
28880,3rd Ave NW & NW 140th St,47.7307892,-122.36084
28890,3rd Ave NW & NW 143rd St,47.7325745,-122.36084
2890,Madrona Dr & Madrona Pl E,47.6183472,-122.285255
2900,E Denny Way & E Florence Ct,47.6183548,-122.288628
29091,NE 45th St & 45th Ave NE,47.661541,-122.280174
2910,34th Ave & E Howell St,47.6173935,-122.289284
29100,NE 45th St & 42nd Ave NE,47.6613464,-122.28273
2911,34th Ave & E Olive St,47.6163025,-122.289314
29110,NE 45th St & 40th Ave NE,47.661335,-122.284637
29130,NE 45th St & 36th Ave NE,47.6612053,-122.289627
2920,34th Ave & E Pine St,47.6149864,-122.289337
29213,NW Market St & 20th Ave NW,47.6686058,-122.381287
29215,NW Market St & 15th Ave NW,47.6685982,-122.375847
29217,NW Market St & 11th Ave NW,47.6685944,-122.370453
29219,NW Market St & 8th Ave NW,47.6685982,-122.36554
29220,NW Market St & 6th Ave NW,47.6686134,-122.363037
29222,NW Market St & NW 50th St,47.664814,-122.359512
29223,NW Market St & NW 48th St,47.6633644,-122.357872
29225,N 46th St & Phinney Ave N,47.6620674,-122.353638
29231,N 45th St & Stone Way N,47.6613159,-122.34166
29232,N 45th St & Woodlawn Ave N,47.6613159,-122.338692
29234,N 45th St & Corliss Ave N,47.6613083,-122.331032
29236,NE 45th St & Thackeray Pl NE,47.6612778,-122.326347
29240,NE Pacific St & 15th Ave NE,47.6520844,-122.310883
29242,NE Pacific Pl & NE Pacific St,47.6505051,-122.306908
29243,NE Pacific Pl & NE Pacific St,47.6504898,-122.306198
29244,24th Ave E & E Mcgraw St,47.6405449,-122.30217
29245,East Montlake Pl E & E Roanoke St,47.6429596,-122.302948
29247,NE Pacific St & Montlake Blvd NE - Bay 1,47.6491432,-122.30497
29248,24th Ave E & E Newton St,47.6376915,-122.30162
29249,24th Ave E & Boyer Ave E,47.6349983,-122.301674
29251,24th Ave E & E Galer St,47.6321678,-122.301712
29253,24th Ave E & E Prospect St,47.6290436,-122.301773
29254,23rd Ave E & E Aloha St,47.6265831,-122.302498
29255,23rd Ave E & E Roy St,47.6249847,-122.302521
29256,23rd Ave E & E Republican St,47.6229362,-122.302559
29257,23rd Ave E & E Thomas St,47.62117,-122.302589
29258,E John St & 22nd Ave E,47.6202774,-122.303993
29259,E Thomas St & 19th Ave E,47.6205559,-122.30719
29260,E Thomas St & 16th Ave E,47.6205673,-122.311172
29261,E John St & 15th Ave E,47.6200333,-122.313202
29262,E John St & 10th Ave E,47.6199799,-122.319992
29266,E Olive Way & Summit Ave E,47.6191521,-122.325119
29268,E Olive Way & Summit Ave E,47.6191292,-122.324883
29270,E John St & Broadway  E,47.6198463,-122.320473
29273,E John St & 15th Ave E,47.6198921,-122.313042
29274,E Thomas St & 16th Ave E,47.6204262,-122.31102
29275,E Thomas St & 19th Ave E,47.6204224,-122.307518
29276,E John St & 22nd Ave E,47.6201439,-122.303177
29277,E John St & 12th Ave E,47.619873,-122.316429
29278,23rd Ave E & E Republican St,47.6233788,-122.302361
29279,23rd Ave E & E Roy St,47.6253357,-122.302315
29280,23rd Ave E & E Aloha St,47.6270142,-122.302292
2930,34th Ave & E Union St,47.6130142,-122.289406
29300,24th Ave E & E Prospect St,47.629467,-122.301567
29301,E John St & 12th Ave E,47.6200027,-122.317535
29320,24th Ave E & E Galer St,47.6327782,-122.301514
29340,24th Ave E & Boyer Ave E,47.6350517,-122.301468
29350,24th Ave E & E Newton St,47.6380997,-122.301483
29361,24th Ave E & E Mcgraw St,47.640152,-122.301979
29380,East Montlake Pl E & E Roanoke St,47.6430969,-122.302849
2940,E Union St & 33rd Ave,47.6129723,-122.290802
29405,NE Pacific St & Montlake Blvd NE - Bay 2,47.649765,-122.305893
29420,NE Pacific St & 15th Ave NE,47.6522064,-122.310783
29423,Brooklyn Ave NE & NE Pacific St,47.6533508,-122.314392
29431,15th Ave NE & NE Pacific St,47.6527672,-122.312836
29440,15th Ave NE & NE Campus Pkwy,47.655899,-122.311974
29455,NE 45th St & 9th Ave NE,47.6613731,-122.318214
29480,NE 45th St & Latona Ave NE,47.6614151,-122.325386
2950,E Union St & 31st Ave,47.6130066,-122.292915
29500,N 45th St & Sunnyside Ave N,47.6614418,-122.331238
29530,N 45th St & Woodlawn Ave N,47.6614609,-122.339653
29540,N 45th St & Stone Way N,47.6614609,-122.34256
29557,N 46th St & Green Lake Way N,47.6621895,-122.345413
29581,Aurora Ramp & Fremont Ave N,47.6622086,-122.349037
29582,N 46th St & Linden Ave N,47.6619835,-122.34745
2960,E Union St & 29th Ave,47.6130295,-122.295296
29600,N 46th St & Phinney Ave N,47.6622124,-122.354324
29620,NW Market St & NW 48th St,47.6636391,-122.357941
29630,NW Market St & NW 50th St,47.665184,-122.359619
29640,NW Market St & 3rd Ave NW,47.6677628,-122.361328
29650,NW Market St & 5th Ave NW,47.6687508,-122.363228
29660,NW Market St & 8th Ave NW,47.6687355,-122.366493
29680,NW Market St & 11th Ave NW,47.6687279,-122.371155
2970,E Union St & 27th Ave,47.6130066,-122.297836
29700,NW Market St & 15th Ave NW,47.6687355,-122.377136
29720,NW Market St & 20th Ave NW,47.6687393,-122.382423
2980,E Union St & 25th Ave,47.6130066,-122.300461
29865,NE 45th St & Roosevelt Way NE,47.6612358,-122.317291
29889,NE 45th St & Memorial Way NE,47.66119,-122.308968
29891,NE 45th St & 19th Ave NE,47.66119,-122.306892
29920,NE 45th St & Mary Gates Memorial Dr NE,47.6611481,-122.292465
29930,NE 45th St & 36th Ave NE,47.6610489,-122.289024
2995,E Union St & 23rd Ave,47.6130066,-122.303001
29950,NE 45th St & 40th Ave NE,47.6612015,-122.285255
29952,NE 45th St & 42nd Ave NE,47.6612053,-122.282509
300,2nd Ave & Pike St,47.6086464,-122.338432
3000,E Union St & 20th Ave,47.6129799,-122.306168
3010,E Union St & 18th Ave,47.6129723,-122.309349
30122,Seward Park Ave S & S Fisher Pl,47.5216446,-122.264366
30140,S Henderson St & Rainier Ave S,47.5233765,-122.270554
30160,S Henderson St & Renton Ave S,47.5233841,-122.276894
30170,S Henderson St & Martin L King Jr Way S,47.5232735,-122.279778
30171,Carkeek Dr S & 41st Ave S,47.5222969,-122.281174
30180,Carkeek Dr S & 40th Ave S,47.5173645,-122.282356
30190,39th Ave S & S Cambridge St,47.5184784,-122.283562
30211,39th Ave S & S Barton St,47.5220909,-122.28389
30220,Beacon Ave S & 38th Ave S,47.5231628,-122.285118
30240,Beacon Ave S & S Cloverdale St,47.526371,-122.28759
30250,Beacon Ave S & S Thistle St,47.5281029,-122.287659
30270,Beacon Ave S & S Monroe St,47.5312653,-122.287895
30290,Beacon Ave S & S Holden St,47.5340004,-122.289261
3030,E Union St & 14th Ave,47.6129723,-122.314423
30300,Beacon Ave S & S Webster St,47.5351753,-122.290283
30310,Beacon Ave S & 32nd Ave S,47.5361481,-122.291718
3032,E Union St & Broadway,47.6130295,-122.320595
30320,Beacon Ave S & S Othello St,47.5371971,-122.293289
3033,Seneca St & Harvard Ave,47.6126022,-122.322319
30330,Beacon Ave S & S Myrtle St,47.5383148,-122.294983
3034,Seneca St & Summit Ave,47.6116295,-122.32457
30340,Beacon Ave S & S Myrtle St,47.5392342,-122.296349
3035,Seneca St & Boren Ave,47.6109276,-122.326233
3036,Seneca St & Terry Ave,47.6102257,-122.327904
30360,Beacon Ave S & S Holly St,47.5424919,-122.299049
3037,Seneca St & 8th Ave,47.6092796,-122.33017
30380,Beacon Ave S & S Graham St,47.5466232,-122.300308
30390,Beacon Ave S & S Spencer St,47.5480423,-122.300743
30410,Beacon Ave S & S Orcas St,47.5508995,-122.301605
30430,Beacon Ave S & S Brandon St,47.5539436,-122.302536
30440,Beacon Ave S & S Dawson St,47.5562401,-122.303215
30453,Veterans Administration Hospital,47.5638237,-122.309158
30460,S Columbian Way & Beacon Ave S,47.5597878,-122.30513
30480,S Columbian Way & Veterans Administration Hospital Rd,47.562439,-122.311523
30489,S Columbian Way & S Oregon St,47.5633965,-122.31308
30490,S Columbian Way & S Oregon St,47.5634766,-122.31292
30510,15th Ave S & S Dakota St,47.5674858,-122.313354
30520,S Columbian Way & 15th Ave S,47.5701637,-122.313789
30530,S Columbian Way & S Spokane St,47.5720406,-122.314629
30538,4th Ave S & S Spokane St,47.57201,-122.328789
30550,4th Ave S & S Hanford St,47.575222,-122.328972
30560,4th Ave S & S Forest St,47.5776711,-122.328957
30570,4th Ave S & S Lander St,47.5802307,-122.328957
30590,4th Ave S & S Walker St,47.5836868,-122.328957
30600,4th Ave S & S Holgate St,47.5863914,-122.328972
30635,4th Ave S & S Royal Brougham Way,47.5933418,-122.328957
30670,4th Ave S & Edgar Martinez Dr S,47.5903397,-122.329269
30690,4th Ave S & S Holgate St,47.585659,-122.329163
30700,4th Ave S & S Walker St,47.5837212,-122.329163
30720,4th Ave S & S Lander St,47.5793724,-122.329163
30748,4th Ave S & S Horton St,47.574688,-122.329163
30770,S Columbian Way & S Spokane St,47.5713539,-122.314514
30790,15th Ave S & S Dakota St,47.5669937,-122.313576
30800,15th Ave S & S Nevada St,47.5650635,-122.313599
30820,S Columbian Way & S Snoqualmie St,47.5617676,-122.310844
30855,Beacon Ave S & S Dawson St,47.5557137,-122.303589
30870,Beacon Ave S & S Brandon St,47.5535011,-122.302887
30890,Beacon Ave S & S Orcas St,47.5508003,-122.302101
30910,Beacon Ave S & S Raymond St,47.5487213,-122.301445
30930,Beacon Ave S & S Graham St,47.5464935,-122.300789
30950,Beacon Ave S & S Holly St,47.5427513,-122.299637
30960,Beacon Ave S & 27th Ave S,47.5401306,-122.298286
30970,Beacon Ave S & S Myrtle St,47.5387039,-122.29628
30981,Beacon Ave S & S Othello St,47.5365219,-122.292999
31010,Beacon Ave S & S Holden St,47.5334816,-122.28952
31030,Beacon Ave S & S Monroe St,47.5307503,-122.288246
31050,Beacon Ave S & S Thistle St,47.5281029,-122.288124
31060,Beacon Ave S & S Cloverdale St,47.5258827,-122.288025
31070,Beacon Ave S & 37th Ave S,47.5235214,-122.286133
31090,39th Ave S & S Barton St,47.5210686,-122.283768
31111,39th Ave S & S Cambridge St,47.5184364,-122.283768
31130,Carkeek Dr S & 40th Ave S,47.5172882,-122.282166
31131,Carkeek Dr S & 41st Ave S,47.5226898,-122.280815
31132,S Henderson St & Martin L King Jr Way S,47.5232506,-122.278
31134,S Henderson St & 48th Ave S,47.523243,-122.272209
31135,S Henderson St & Rainier Ave S,47.5232353,-122.269341
31136,S Henderson St & 53rd Ave S,47.5232239,-122.266037
31137,S Henderson St & Rainier Ave S,47.5232353,-122.268219
31140,Discovery Park Road & Texas Way,47.6647491,-122.410904
31150,W Government Way & 36th Ave W,47.6583214,-122.403145
31160,W Government Way & 31st Ave W,47.6611023,-122.397842
31180,Gilman Ave W & 28th Pl W,47.6609688,-122.393623
31190,Gilman Ave W & W Jameson St,47.6594543,-122.391121
31210,Gilman Ave W & 25th Ave W,47.657135,-122.388199
31220,Gilman Ave W & 24th Ave W,47.65625,-122.387077
31230,22nd Ave W & Gilman Ave W,47.6536827,-122.384758
31240,22nd Ave W & W Ruffner St,47.6519012,-122.384781
31250,22nd Ave W & W Bertona St,47.6501312,-122.384773
31260,22nd Ave W & W Dravus St,47.6482658,-122.384773
31270,22nd Ave W & W Barrett St,47.646347,-122.384758
31280,22nd Ave W & W Armour St,47.6445389,-122.384743
31290,22nd Ave W & Thorndyke Ave W,47.6430473,-122.38472
31300,Thorndyke Ave W & 23rd Ave W,47.6406593,-122.386398
31310,Thorndyke Ave W & Thorndyke Pl W,47.6398354,-122.387108
31320,Thorndyke Ave W & W Boston St,47.6382942,-122.388252
31330,Thorndyke Ave W & W Newton St,47.6367569,-122.389404
31340,W Blaine St & 27th Ave W,47.6351624,-122.39122
31350,Thorndyke Ave W & W Blaine St,47.6352119,-122.390396
31360,Thorndyke Ave W & W Newton St,47.6371841,-122.388649
31370,Thorndyke Ave W & W Boston St,47.63834,-122.387787
31380,Thorndyke Ave W & W Lynn St,47.6393051,-122.387062
31390,Thorndyke Ave W & 23rd Ave W,47.6409569,-122.385933
31400,22nd Ave W & Thorndyke Ave W,47.6434021,-122.384537
31410,22nd Ave W & W Armour St,47.6450577,-122.384552
31420,22nd Ave W & W Barrett St,47.646801,-122.384552
31430,22nd Ave W & W Dravus St,47.648716,-122.384567
31440,22nd Ave W & W Bertona St,47.6505203,-122.384567
31450,22nd Ave W & W Ruffner St,47.6520996,-122.384583
31460,22nd Ave W & Gilman Ave W,47.6533203,-122.384567
31481,Gilman Ave W & W Elmore St,47.6580887,-122.38913
3150,Seneca St & 8th Ave,47.6092529,-122.329842
31500,Gilman Ave W & 27th Ave W,47.6596832,-122.391151
3151,Seneca St & 9th Ave,47.60989,-122.328316
31510,Gilman Ave W & 28th Pl W,47.6608505,-122.393036
3152,Seneca St & Boren Ave,47.6108093,-122.326126
3153,Seneca St & Summit Ave,47.611763,-122.323883
31530,W Government Way & 31st Ave W,47.6610718,-122.398148
3154,Seneca St & Boylston Ave,47.6122208,-122.322777
31547,Texas Way & W Government Way,47.6622391,-122.405647
3155,E Union St & Broadway,47.6128845,-122.320389
31550,W Government Way & 36th Ave W,47.6584091,-122.403542
31552,Texas Way & W Government Way,47.6623154,-122.405441
3156,E Madison St & 12th Ave,47.6124802,-122.317429
31560,SW Roxbury St & 8th Ave SW,47.5173759,-122.345825
31580,SW Roxbury St & 12th Ave SW,47.5174065,-122.350494
31590,SW Roxbury St & 15th Ave SW - Bay 4,47.517437,-122.353569
3160,E Union St & 13th Ave,47.6128387,-122.315636
31610,Tukwila Intl Blvd & S 112th St,47.5032921,-122.292877
31613,East Marginal Way S & S Boeing Acs,47.5099335,-122.292152
31620,East Marginal Way S & S Norfolk St,47.5130997,-122.294243
31630,East Marginal Way S & S 96th Pl,47.5173225,-122.296974
31631,East Marginal Way S & S 94th Pl,47.5185928,-122.297821
31641,East Marginal Way S & S 87th Pl,47.5242577,-122.301483
31650,East Marginal Way S & S 81st Pl,47.529892,-122.305786
31660,16th Ave S & East Marginal Way S,47.5334854,-122.313354
31670,14th Ave S & S Cloverdale St,47.5269203,-122.314995
31680,S Cloverdale St & 12th Ave S,47.5265198,-122.318123
31700,S Cloverdale St & 8th Ave S,47.526535,-122.323273
31720,S Cloverdale St & 5th Ave S,47.5265503,-122.328094
31731,26th Ave SW & SW Barton St - Bay 2,47.5209389,-122.365768
31736,SW Barton Pl & 22nd Ave SW,47.5222473,-122.36203
31765,SW Barton St & 35th Ave SW,47.5211372,-122.377243
31791,California Ave SW & SW Barton St,47.5215683,-122.387573
31811,SW Alaska St & 44th Ave SW - Bay 2,47.5610695,-122.387527
31818,SW Oregon St & California Ave SW,47.5628815,-122.387177
31830,California Ave SW & SW Genesee St,47.5649643,-122.386673
31850,California Ave SW & SW Andover St,47.5685959,-122.386673
31871,California Ave SW & SW Spokane St,47.5722923,-122.386673
31890,California Ave SW & SW Hanford St,47.5759277,-122.386658
3190,E Union St & 18th Ave,47.6128387,-122.309021
31900,California Ave SW & SW Stevens St,47.5777359,-122.386589
31910,California Ave SW & SW Lander St,47.579216,-122.386536
31920,California Ave SW & SW Admiral Way,47.5808945,-122.386658
31930,California Ave SW & SW Lander St,47.5790558,-122.386742
31940,California Ave SW & SW Stevens St,47.5770988,-122.386818
31950,California Ave SW & SW Hanford St,47.5754395,-122.386864
31970,California Ave SW & SW Spokane St,47.5717926,-122.386871
31990,California Ave SW & SW Andover St,47.5681458,-122.386871
320,2nd Ave & Seneca St,47.6062126,-122.336205
3200,E Union St & 20th Ave,47.6128387,-122.306412
32010,California Ave SW & SW Genesee St,47.5644188,-122.386871
32011,SW Alaska St & 44th Ave SW - Bay 4,47.5612068,-122.387955
32013,44th Ave SW & SW Alaska St - Bay 5,47.5613861,-122.388039
32030,California Ave SW & SW Barton St,47.5219383,-122.387367
3210,E Union St & 23rd Ave,47.6128807,-122.301758
32100,S Cloverdale St & 5th Ave S,47.5264091,-122.327835
32120,S Cloverdale St & 8th Ave S,47.5263977,-122.322319
32140,S Cloverdale St & 12th Ave S,47.5263748,-122.317169
32150,14th Ave S & S Cloverdale St,47.5267906,-122.314789
32160,16th Ave S & East Marginal Way S,47.5326233,-122.313164
32165,East Marginal Way S & 16th Ave S,47.5335007,-122.312042
32180,East Marginal Way S & S 81st Pl,47.5296974,-122.305801
32182,East Marginal Way S & S 87th Pl,47.524292,-122.301727
32192,East Marginal Way S & S 94th Pl,47.5188904,-122.298248
3220,E Union St & 26th Ave,47.6128616,-122.298477
32200,East Marginal Way S & S 96th Pl,47.5165634,-122.296692
32210,East Marginal Way S & S Norfolk St,47.5121613,-122.293861
32215,Tukwila Intl Blvd & S Boeing Acs,47.5055542,-122.291946
3230,E Union St & Martin L King Jr Way,47.612896,-122.295654
32364,SW Alaska St & Fauntleroy Way SW,47.5611534,-122.380508
32371,California Ave SW & SW College St,47.5827751,-122.386589
3240,E Union St & 30th Ave,47.6128807,-122.293755
32420,Alki Ave SW & 59th Ave SW,47.5801201,-122.407677
32421,Alki Ave SW & 57th Ave SW,47.5813065,-122.404945
32423,Alki Ave SW & 53rd Ave SW,47.5836754,-122.400742
32425,Alki Ave SW & Bonair Dr SW,47.5860672,-122.39798
32426,Alki Ave SW & 1700 Block,47.5879898,-122.395767
32427,Alki Ave SW & 1600 Block,47.5891304,-122.394432
32428,Alki Ave SW & 1400 Block,47.5908165,-122.392555
32429,Alki Ave SW & 1300 Block,47.5924301,-122.391205
32430,Alki Ave SW & 1200 Block,47.5941238,-122.389153
32431,Alki Ave SW & 1000 Block,47.5949554,-122.387352
32432,Alki Ave SW & Harbor Ave SW,47.595089,-122.385765
32433,Harbor Ave SW & SW Maryland Pl,47.593174,-122.383408
32435,Harbor Ave SW & California Way SW,47.5884666,-122.380302
32436,Harbor Ave SW & Fairmount Ave SW,47.5871086,-122.37838
32438,Harbor Ave SW & 2100 Block,47.5852661,-122.37603
32439,Harbor Ave SW & Fauntleroy Ave SW,47.5824356,-122.373581
32440,Harbor Ave SW & SW Florida St,47.5814133,-122.373024
32441,Harbor Ave SW & SW Harbor Ln,47.5758858,-122.371353
32442,Harbor Ave SW & SW Spokane St,47.5719948,-122.370827
32443,Harbor Ave SW & SW Harbor Ln,47.577446,-122.371902
3250,E Union St & 32nd Ave,47.6128387,-122.291183
32601,Harbor Ave SW & 30th Ave SW,47.5720177,-122.370636
32610,Harbor Ave SW & SW Harbor Ln,47.5767555,-122.371346
32620,Harbor Ave SW & SW Florida St,47.58181,-122.372971
32630,Harbor Ave SW & Fauntleroy Ave SW,47.5829086,-122.373764
32640,Harbor Ave SW & 2100 Block,47.5844765,-122.375114
32660,Harbor Ave SW & Fairmount Ave SW,47.5874596,-122.378593
32670,Harbor Ave SW & California Way SW,47.5888634,-122.380562
3271,34th Ave & E Olive St,47.6166916,-122.289093
3280,34th Ave & E Howell St,47.6175575,-122.289078
3293,34th Ave & E Pike St,47.6144218,-122.289162
3300,Madrona Dr & 38th Ave,47.6181641,-122.285149
3310,Madrona Dr & E Olive St,47.6165276,-122.284698
3320,Madrona Dr & E Pine St,47.6150093,-122.283859
33220,SW Alaska St & Fauntleroy Way SW,47.5610161,-122.380867
33221,SW Alaska St & 36th Ave SW,47.5610008,-122.37709
3330,Madrona Dr & Newport Way,47.6134796,-122.28273
3380,Beacon Ave S & S Columbian Way,47.5592232,-122.304161
340,2nd Ave & Marion St,47.6044655,-122.334625
3400,Beacon Ave S & Veterans Administration Hospital,47.5637321,-122.305565
3410,Beacon Ave S & Jefferson Golf Course,47.5673218,-122.306671
3420,Beacon Ave S & Jefferson Community Center,47.569809,-122.307449
3430,Beacon Ave S & S Spokane St,47.5724297,-122.308304
3450,Beacon Ave S & S Hanford St,47.5753593,-122.309204
34544,S Henderson St & Rainier Ave S,47.5233688,-122.269218
3460,Beacon Ave S & S Stevens St,47.5774956,-122.310432
34640,Seward Park Ave S & S Othello St,47.5371666,-122.267166
34650,Seward Park Ave S & S Myrtle St,47.538826,-122.267128
34680,Seward Park Ave S & S Holly St,47.5423393,-122.264503
34690,Seward Park Ave S & Wilson Ave S,47.5449295,-122.263428
3470,Beacon Ave S & S Lander St,47.579319,-122.312126
34700,Seward Park Ave S & 57th Ave S,47.5463142,-122.261925
34730,Seward Park Ave S & S Juneau St,47.5499306,-122.258888
34740,Seward Park Ave S & S Orcas St,47.5512466,-122.262184
34750,Seward Park Ave S & 56th Ave S,47.5529861,-122.263519
34760,S Dawson St & 54th Ave S,47.5549088,-122.266182
34770,S Dawson St & 51st Ave S,47.5549164,-122.269638
34780,50th Ave S & S Hudson St,47.5572662,-122.270599
34800,50th Ave S & S Alaska St,47.5607986,-122.270622
34820,S Genesee St & 50th Ave S,47.5641747,-122.271461
3484,Beacon Ave S & 15th Ave S,47.5809555,-122.313629
34840,S Genesee St & 47th Ave S,47.5641632,-122.274834
34860,S Genesee St & 43rd Ave S,47.5641518,-122.279846
34880,S Genesee St & 39th Ave S,47.564209,-122.284164
34910,S Genesee St & 36th Ave S,47.5640411,-122.28717
34930,S Genesee St & Cascadia Ave S,47.5640869,-122.282478
34940,S Genesee St & 42nd Ave S,47.5640144,-122.279694
34960,S Genesee St & 46th Ave S,47.5640259,-122.275436
34980,50th Ave S & S Genesee St,47.5638084,-122.270844
3500,14th Ave S & S Hill St,47.5845032,-122.314583
35000,50th Ave S & S Alaska St,47.560379,-122.270813
35020,Wilson Ave S & S Hudson St,47.5568695,-122.27076
35030,Wilson Ave S & S Dawson St,47.5549965,-122.270065
35050,Wilson Ave S & S Findlay St,47.5520096,-122.26696
35060,S Orcas St & 55th Ave S,47.5510483,-122.264748
35070,Seward Park Ave S & S Orcas St,47.5508461,-122.2621
35080,Seward Park Ave S & S Juneau St,47.5495605,-122.258919
35100,Seward Park Ave S & Oakhurst Rd S,47.5464478,-122.262016
35110,Seward Park Ave S & S Morgan St,47.5441055,-122.26429
35120,Seward Park Ave S & S Holly St,47.5422325,-122.264748
35140,Seward Park Ave S & S Myrtle St,47.5387077,-122.267349
35149,Seward Park Ave S & S Othello St,47.5371132,-122.267372
3515,14th Ave S & S Holgate St,47.5866051,-122.314568
35230,NE 125th St & Lake City Way NE,47.7193527,-122.295776
35231,NE 125th St & 28th Ave NE,47.7193642,-122.298256
35233,NE 125th St & 25th Ave NE,47.7193832,-122.302246
35250,NE 125th St & 20th Ave NE,47.7194366,-122.307602
35270,NE 125th St & 15th Ave NE,47.7195091,-122.313248
35290,NE 103rd St & 5th Ave NE,47.7032166,-122.323692
3530,S Massachusetts St & 14th Ave S,47.5885086,-122.315208
35317,Northgate Station - Bay 1,47.7028084,-122.328423
35318,Northgate Station - Bay 4,47.7023087,-122.328026
35319,Northgate Station - Bay 3,47.7015343,-122.328011
35331,NE Northgate Way & 23rd Ave NE,47.7090874,-122.303993
35332,NE Northgate Way & 15th Ave NE,47.7084579,-122.312149
35333,NE Northgate Way & 23rd Ave NE,47.7089653,-122.303917
35334,NE Northgate Way & 19th Ave NE,47.7084198,-122.307823
35336,NE Northgate Way & 19th Ave NE,47.7085533,-122.308395
35338,NE Northgate Way & 15th Ave NE,47.7086029,-122.313583
35350,NE 125th St & Roosevelt Way NE,47.7194443,-122.317917
35380,NE 125th St & 15th Ave NE,47.7193604,-122.312279
35400,NE 125th St & 20th Ave NE,47.7192955,-122.307014
3541,12th Ave S & S Massachusetts St,47.5887604,-122.317177
35420,NE 125th St & 25th Ave NE,47.7192497,-122.301498
35440,NE 125th St & 30th Ave NE,47.719223,-122.297455
3550,12th Ave S & S Atlantic St,47.5902481,-122.317177
35530,Loyal Way NW & NW 85th St,47.6902084,-122.397842
35540,NW 85th St & 31st Ave NW,47.6904984,-122.39653
35550,NW 85th St & 29th Ave NW,47.6905022,-122.394058
35551,NW 85th St & 24th Ave NW,47.690506,-122.387764
35570,NW 85th St & 22nd Ave NW,47.6905174,-122.384018
35580,NW 85th St & 20th Ave NW,47.6905251,-122.381874
35600,NW 85th St & 15th Ave NW,47.6905403,-122.376434
35630,NW 85th St & 11th Ave NW,47.6905708,-122.370033
35660,NW 85th St & 3rd Ave NW,47.6905556,-122.360275
35670,N 85th St & 1st Ave NW,47.6905479,-122.357658
35691,East Green Lake Dr N & Meridian Ave N,47.682682,-122.332932
3570,12th Ave S & S Judkins St,47.5927162,-122.317177
35721,East Green Lake Dr N & 4th Ave NE,47.6812057,-122.326973
35770,15th Ave NE & NE Ravenna Blvd,47.6704674,-122.312004
35790,15th Ave NE & NE 52nd St,47.6660843,-122.312027
3580,S Charles St & Golf Dr S,47.5941429,-122.316727
35800,15th Ave NE & NE 50th St,47.6644783,-122.312042
35820,15th Ave NE & NE 45th St,47.6615601,-122.31208
35821,23rd Ave E & E John St,47.6199303,-122.30262
35825,23rd Ave E & E John St,47.6206017,-122.302399
35850,23rd Ave & E Pine St,47.6151199,-122.302757
35860,23rd Ave & E Union St,47.6124611,-122.302826
3589,12th Ave S & S Weller St,47.5973778,-122.317123
35890,23rd Ave S & S Dearborn St,47.5953178,-122.30233
35910,23rd Ave S & S Judkins St,47.5916214,-122.302505
35940,23rd Ave S & S Massachusetts St,47.5880508,-122.302696
35960,S Alaska St & 35th Ave S,47.5607986,-122.289055
35979,S Alaska St & Martin L King Jr Way S,47.5609131,-122.293983
35990,S Columbian Way & S Americus St,47.5604782,-122.301292
360,2nd Ave & Cherry St,47.6030197,-122.333282
3600,S Jackson St & 12th Ave S,47.5992699,-122.317757
36090,21st Ave SW & 22nd Ave SW,47.5591393,-122.360291
361,2nd Ave & James St,47.602478,-122.332809
36100,21st Ave SW & SW Dawson St,47.5574455,-122.360237
36110,SW Dawson St & 18th Ave SW,47.5556946,-122.35714
36120,16th Ave SW & SW Brandon St,47.5546646,-122.354881
36140,16th Ave SW & SW Findlay St,47.551899,-122.354881
36145,Ssc North Entrance,47.5487061,-122.354935
36155,Ssc North Entrance,47.5491066,-122.354637
36170,16th Ave SW & SW Holly St,47.54282,-122.355034
36180,16th Ave SW & SW Myrtle St,47.5388336,-122.355103
36190,16th Ave SW & SW Webster St,47.5352592,-122.355125
36300,Delridge Way SW & SW Holden St,47.5346222,-122.360649
36320,Sylvan Way SW & Delridge Way SW,47.5374336,-122.36338
36330,Sylvan Way SW & SW Sylvan Heights Dr,47.5405045,-122.369034
36360,SW Morgan St & 35th Ave SW,47.5447617,-122.376846
36370,SW Morgan St & 38th Ave SW,47.5448418,-122.380905
36380,SW Morgan St & 40th Ave SW,47.5448914,-122.383514
36390,44th Ave SW & SW Alaska St - Bay 6,47.5614738,-122.388039
36400,SW Morgan St & 42nd Ave SW,47.5447845,-122.385536
36410,SW Morgan St & 40th Ave SW,47.544754,-122.38279
36420,SW Morgan St & 38th Ave SW,47.5446892,-122.380196
36430,SW Morgan St & 36th Ave SW,47.5446396,-122.377914
36440,SW Morgan St & 35th Ave SW,47.5446167,-122.376167
36450,SW Morgan St & Lanham Pl SW,47.5445976,-122.372871
36470,Sylvan Way SW & SW Holly St,47.5426216,-122.370644
36472,Sylvan Way SW & SW Sylvan Heights Dr,47.5402336,-122.368546
36480,SW Orchard St & Delridge Way SW,47.5372734,-122.363068
36490,16th Ave SW & SW Webster St,47.5357285,-122.354919
36500,16th Ave SW & SW Orchard St,47.5384026,-122.354897
36510,16th Ave SW & SW Holly St,47.543026,-122.354813
36520,16th Ave SW & SW Morgan St,47.5449562,-122.354691
36522,16th Ave SW & SW Graham St,47.5465546,-122.35495
36525,South Seattle College,47.5474434,-122.353882
36530,16th Ave SW & SW Findlay St,47.5518761,-122.354675
36540,16th Ave SW & SW Brandon St,47.5539398,-122.354675
36560,SW Dawson St & 18th Ave SW,47.5558357,-122.356987
36580,21st Ave SW & 22nd Ave SW,47.5582008,-122.360062
36680,S Columbian Way & Beacon Ave S,47.5596352,-122.303886
36690,S Columbian Way & S Americus St,47.5605278,-122.300735
36700,S Alaska St & S Alaska Pl,47.561039,-122.295639
36711,S Alaska St & Martin Luther King Junior Way S,47.5607338,-122.292221
36720,S Alaska St & 35th Ave S,47.5606537,-122.289024
36730,23rd Ave S & S Plum St,47.5857391,-122.302834
